id,name,maintenance_responsibility,installed,material,length,number_of_steps,schools_count,school_score,total_population,transit_rider_count,transit_score,detour_score,overall_score,image,neighborhood,council_district,ward,tract,public_works_division,pli_division,police_zone,fire_zone,latitude,longitude
326501686,10 Wakefield St,3rd Division,,Concrete,53,8,0,100,367,0,1,1,1,https://tools.wprdc.org/images/pittsburgh/steps/10_Wakefield_St.jpg,South Oakland,3,4,42003040900,3,4,4,2-11,40.43092643,-79.95709004
527853474,1005 St Martin St,4th Division,,Concrete,33,24,,,,,,,,https://tools.wprdc.org/images/pittsburgh/steps/1005_St_Martin_St.jpg,South Side Slopes,3,17,42003170600,3,17,3,4-6,40.42240992,-79.98821521
1074700399,1017 St Martin St,4th Division,,Concrete,52,4,,,,,,,,https://tools.wprdc.org/images/pittsburgh/steps/1017_St_Martin_St.jpg,South Side Slopes,3,17,42003170600,3,17,3,4-6,40.42247118,-79.98760433
50987987,30th St from Bigelow Blvd to Leander St,3rd Division,1948-01-01,Concrete,106,106,0,100,235,27,5,9,5,https://tools.wprdc.org/images/pittsburgh/steps/30th_St_from_Bigelow_Blvd_to_Leander_St.jpg,Bedford Dwellings,7,6,42003060500,3,6,2,2-24,40.45478729,-79.96845303
173445306,30th St from Paulowna to Bigelow Blvd,3rd Division,1948-01-01,Concrete,204,85,1,4,422,39,4,7,9,https://tools.wprdc.org/images/pittsburgh/steps/30th_St_from_Paulowna_to_Bigelow_Blvd.jpg,Polish Hill,7,6,42003060500,6,6,2,2-6,40.45547025,-79.96872548
1770071723,53rd St from Holmes St to Lotus Way West,2nd Division,1949-01-01,Concrete,105,44,1,8,1751,124,9,4,7,https://tools.wprdc.org/images/pittsburgh/steps/53rd_St_from_Holmes_St_to_Lotus_Way_West.jpg,Upper Lawrenceville,7,10,42003101100,2,10,2,3-5,40.4803416,-79.95013388
1298252202,53rd St from Lotus Way to Duncan St,2nd Division,1949-01-01,Concrete,106,17,,,,,,,,https://tools.wprdc.org/images/pittsburgh/steps/53rd_St_from_Lotus_Way_to_Duncan_St.jpg,Upper Lawrenceville,7,10,42003101100,2,10,2,3-5,40.48010422,-79.94980444
1726357152,54th St from Wickliff to Camelia St,2nd Division,,Concrete,424,188,1,10,1227,31,8,7,8,https://tools.wprdc.org/images/pittsburgh/steps/54th_St_from_Wickliff_to_Camelia_St.jpg,Upper Lawrenceville,7,10,42003101800,2,10,2,3-5,40.47991519,-79.94730123
652746099,56th St from Carnegie St to Duncan St,2nd Division,1946-01-01,Concrete,468,249,0,100,507,178,7,5,7,https://tools.wprdc.org/images/pittsburgh/steps/56th_St_from_Carnegie_St_to_Duncan_St.jpg,Upper Lawrenceville,7,10,42003101100,2,10,2,3-5,40.48332958,-79.9468158
1945192976,56th St from Celadine St to Alford Way,2nd Division,,Wood,36,8,0,100,422,8,3,7,3,https://tools.wprdc.org/images/pittsburgh/steps/56th_St_from_Celadine_St_to_Alford_Way.jpg,Stanton Heights,7,10,42003101800,2,10,5,3-5,40.48217592,-79.94427348
249264327,56th St from Duncan to Wickliff St,2nd Division,1946-01-01,Concrete,167,26,,,,,,,,https://tools.wprdc.org/images/pittsburgh/steps/56th_St_from_Duncan_to_Wickliff_St.jpg,Upper Lawrenceville,7,10,42003101100,2,10,2,3-5,40.48262529,-79.94593166
1480562482,56th St from Wickliff St to Celadine St,2nd Division,1946-01-01,Concrete,383,119,0,100,517,90,8,10,9,https://tools.wprdc.org/images/pittsburgh/steps/56th_St_from_Wickliff_St_to_Celadine_St.jpg,Stanton Heights,7,10,42003101800,2,10,5,3-5,40.48211011,-79.9453843
122981715,57th St from Christopher St to Duncan St,2nd Division,1949-01-01,Concrete,255,,0,100,356,39,2,2,3,https://tools.wprdc.org/images/pittsburgh/steps/57th_St_from_Christopher_St_to_Duncan_St.jpg,Upper Lawrenceville,7,10,42003101100,2,10,2,3-5,40.4832979,-79.94416213
74821978,57th St from Duncan St,2nd Division,1949-01-01,Concrete,286,,0,100,330,23,1,1,2,https://tools.wprdc.org/images/pittsburgh/steps/57th_St_from_Duncan_St.jpg,Stanton Heights,7,10,42003101800,2,10,5,3-5,40.4826782,-79.94341368
626465676,6557 Caton St to Lilac St,3rd Division,,Concrete,111,23,0,100,845,0,6,8,4,https://tools.wprdc.org/images/pittsburgh/steps/6557_Caton_St_to_Lilac_St.jpg,Squirrel Hill South,5,14,42003141400,3,14,4,2-15,40.42356944,-79.92177067
22023827,Adelphia St from Morningside to Duffield St,2nd Division,,Wood,111,45,1,8,802,118,9,7,6,https://tools.wprdc.org/images/pittsburgh/steps/Adelphia_St_from_Morningside_to_Duffield_St.jpg,Stanton Heights,7,10,42003101800,2,10,5,3-7,40.48766343,-79.92630346
732253068,Adon St from Chartiers Ave to Huxley St,5th Division,1947-01-01,Concrete,244,62,1,4,998,65,5,1,7,https://tools.wprdc.org/images/pittsburgh/steps/Adon_St_from_Chartiers_Ave_to_Huxley_St.jpg,Sheraden,2,20,42003202200,5,20,6,1-16,40.45335592,-80.06141769
256935259,Alger St from Neeb St East,3rd Division,,Concrete,18,6,,,,,,,,https://tools.wprdc.org/images/pittsburgh/steps/Alger_St_from_Neeb_St_East.jpg,Greenfield,5,15,42003151600,3,15,4,2-12,40.42762574,-79.9414495
961966396,Allendale St from Chartiers Ave to Tyndall St,5th Division,1982-01-01,Concrete,422,32,,,,,,,,https://tools.wprdc.org/images/pittsburgh/steps/Allendale_St_from_Chartiers_Ave_to_Tyndall_St.jpg,Sheraden,2,20,42003202200,5,20,6,1-16,40.45339805,-80.05933279
1617048956,Allequippa St to Dead End,3rd Division,1947-01-01,Concrete,121,69,0,100,806,258,10,10,10,https://tools.wprdc.org/images/pittsburgh/steps/Allequippa_St_to_Dead_End.jpg,West Oakland,6,4,42003040200,3,4,4,2-1,40.43898042,-79.97150591
146732497,Alma St from Haldane St to Ibex Way,3rd Division,,Brick/Asphalt,93,3,,,,,,,,https://tools.wprdc.org/images/pittsburgh/steps/Alma_St_from_Haldane_St_to_Ibex_Way.jpg,Greenfield,5,15,42003151600,3,15,4,2-12,40.42156333,-79.9427572
640745759,Alma St from Ibex Way to Stanley St,3rd Division,,Brick/Asphalt,102,9,,,,,,,,https://tools.wprdc.org/images/pittsburgh/steps/Alma_St_from_Ibex_Way_to_Stanley_St.jpg,Greenfield,5,15,42003151600,3,15,4,2-12,40.42151433,-79.94322257
1154519667,Alpena St from Bigelow Blvd to Dakota St,3rd Division,1951-01-01,Concrete,634,65,1,10,1301,787,10,9,10,https://tools.wprdc.org/images/pittsburgh/steps/Alpena_St_from_Bigelow_Blvd_to_Dakota_St.jpg,Upper Hill,6,5,42003050600,3,5,2,2-22,40.45351322,-79.95483459
950550444,Alverado Ave from Goldstrom Ave,5th Division,,Wood,120,76,0,100,624,1,5,9,6,https://tools.wprdc.org/images/pittsburgh/steps/Alverado_Ave_from_Goldstrom_Ave.jpg,Beechview,4,19,42003191600,5,19,6,4-28,40.41211508,-80.02841874
2133255384,Alvin St from Tunstall St to Yoder St,3rd Division,1950-01-01,Concrete,74,28,0,100,503,12,5,9,4,https://tools.wprdc.org/images/pittsburgh/steps/Alvin_St_from_Tunstall_St_to_Yoder_St.jpg,Greenfield,5,15,42003151600,3,15,4,2-12,40.42465543,-79.94826447
850876938,Amanda Ave and Brownsville Rd,4th Division,,Concrete,12,9,,,,,,,,https://tools.wprdc.org/images/pittsburgh/steps/Amanda_Ave_and_Brownsville_Rd.jpg,Mount Oliver Borough,,0,42003481000,0,0,3,Mt Oliver,40.41466455,-79.98794777
69799300,Amanda St from Mt Oliver St to Arlington Ave,4th Division,,Concrete,171,35,,,,,,,,https://tools.wprdc.org/images/pittsburgh/steps/Amanda_St_from_Mt_Oliver_St_to_Arlington_Ave.jpg,Allentown,3,18,42003170600,5,18,3,4-6,40.41876938,-79.98814054
892247921,Amherst St from Chartiers Ave to Janewood Way,5th Division,,Concrete,88,53,1,9,877,214,10,8,10,https://tools.wprdc.org/images/pittsburgh/steps/Amherst_St_from_Chartiers_Ave_to_Janewood_Way.jpg,Elliott,2,20,42003562600,5,20,6,1-17,40.44234922,-80.03939916
1934308117,Andick Way from Kenberma Ave to Dagmar Ave,5th Division,,Asphalt/Concrete,235,0,1,7,1499,520,8,3,6,https://tools.wprdc.org/images/pittsburgh/steps/Andick_Way_from_Kenberma_Ave_to_Dagmar_Ave.jpg,Beechview,4,19,42003191600,5,19,6,4-28,40.4139537,-80.02251946
1152983115,Andick Way from Westfield St to Rockland Ave,5th Division,,Concrete,42,38,1,10,1012,0,7,8,6,https://tools.wprdc.org/images/pittsburgh/steps/Andick_Way_from_Westfield_St_to_Rockland_Ave.jpg,Beechview,4,19,42003191600,5,19,6,4-28,40.41408887,-80.01981442
2145370438,Andover Terrace to Bryn Mawr Rd,3rd Division,,Concrete,36,4,,,,,,,,https://tools.wprdc.org/images/pittsburgh/steps/Andover_Terrace_to_Bryn_Mawr_Rd.jpg,Upper Hill,6,5,42003050600,3,5,2,2-22,40.45035158,-79.95696734
845854682,Anise Way from Banksville Ave to Tippet Ave,5th Division,1948-01-01,Concrete,330,77,1,2,285,17,2,4,2,https://tools.wprdc.org/images/pittsburgh/steps/Anise_Way_from_Banksville_Ave_to_Tippet_Ave.jpg,Banksville,2,20,42003202300,5,20,6,4-9,40.40756044,-80.0343061
611544743,Antenor Way from Maytide to Antenor Ave,4th Division,1949-01-01,Concrete,298,101,0,100,644,0,2,2,2,https://tools.wprdc.org/images/pittsburgh/steps/Antenor_Way_from_Maytide_to_Antenor_Ave.jpg,Carrick,4,32,42003320400,3,32,3,4-23,40.38419863,-79.99328295
227182058,Anthony St from Saline St,3rd Division,,Concrete,527,251,1,1,249,0,1,1,1,https://tools.wprdc.org/images/pittsburgh/steps/Anthony_St_from_Saline_St.jpg,Greenfield,5,15,42003151600,3,15,4,2-12,40.42750987,-79.94489249
993831479,Apollo St from Melwood Ave to Bethoven St,3rd Division,1947-01-01,Concrete,193,98,0,100,387,5,3,7,4,https://tools.wprdc.org/images/pittsburgh/steps/Apollo_St_from_Melwood_Ave_to_Bethoven_St.jpg,Polish Hill,7,6,42003060500,6,6,2,2-6,40.45960175,-79.95868179
421123402,Arcola Way from High St to Seidle St,1st Division,1948-01-01,Concrete,83,15,,,,,,,,https://tools.wprdc.org/images/pittsburgh/steps/Arcola_Way_from_High_St_to_Seidle_St.jpg,Spring Garden,1,24,42003241200,1,24,1,1-5,40.46074421,-79.99175131
333337819,Arcola Way from Seidle St to Diana St,1st Division,1948-01-01,Concrete,297,192,0,100,388,13,4,7,6,https://tools.wprdc.org/images/pittsburgh/steps/Arcola_Way_from_Seidle_St_to_Diana_St.jpg,Spring Garden,1,24,42003241200,1,24,1,1-5,40.4613572,-79.99197606
951186450,Arlington Ave at William St,4th Division,,Concrete,63,64,,,,,,,,https://tools.wprdc.org/images/pittsburgh/steps/Arlington_Ave_at_William_St.jpg,Allentown,3,18,42003180300,5,18,3,4-5,40.42798928,-79.99657382
469336987,Ashlyn St from Stafford St to Brevet Way,5th Division,1952-01-01,Concrete,255,102,0,100,1089,0,5,3,5,https://tools.wprdc.org/images/pittsburgh/steps/Ashlyn_St_from_Stafford_St_to_Brevet_Way.jpg,Sheraden,2,20,42003562500,5,20,6,1-16,40.45876332,-80.05353569
116267962,Atmore St to Halsey Place,1st Division,1984-01-01,Concrete,48,33,1,6,299,56,6,9,6,https://tools.wprdc.org/images/pittsburgh/steps/Atmore_St_to_Halsey_Place.jpg,Marshall-Shadeland,1,27,42003270400,1,27,1,1-9,40.46404252,-80.03082987
806782495,Attica St to Furley St,5th Division,,Asphalt/Wood,103,3,1,1,500,149,4,1,6,https://tools.wprdc.org/images/pittsburgh/steps/Attica_St_to_Furley_St.jpg,Elliott,2,20,42003562600,5,20,6,1-17,40.4418071,-80.03710925
1279657092,B St from Lamont to Morrison St,1st Division,1948-01-01,Concrete,103,70,0,100,312,136,4,3,5,https://tools.wprdc.org/images/pittsburgh/steps/B_St_from_Lamont_to_Morrison_St.jpg,California-Kirkbride,6,25,42003250700,1,25,1,1-9,40.4603693,-80.0205203
840162634,Baker St from Jancey St to Morningside Ave,2nd Division,,Brick/Asphalt,48,22,,,,,,,,https://tools.wprdc.org/images/pittsburgh/steps/Baker_St_from_Jancey_St_to_Morningside_Ave.jpg,Morningside,7,10,42003101400,2,10,5,3-7,40.48814555,-79.92505327
443949317,Balfour St from Elliott St to Lander St,5th Division,1947-01-01,Concrete,155,,0,100,155,91,6,9,8,https://tools.wprdc.org/images/pittsburgh/steps/Balfour_St_from_Elliott_St_to_Lander_St.jpg,Elliott,2,20,42003562600,5,20,6,1-17,40.44341462,-80.03274539
1495570257,Balfour St from Steuben St to Elliott St,5th Division,1947-01-01,Concrete,158,,0,100,150,115,6,9,9,https://tools.wprdc.org/images/pittsburgh/steps/Balfour_St_from_Steuben_St_to_Elliott_St.jpg,Elliott,2,20,42003562600,5,20,6,1-17,40.44303279,-80.03248563
1693968083,Ballinger St from Edgebrook Ave to Heber Way,4th Division,1948-01-01,Concrete,192,167,0,100,262,70,4,6,1,https://tools.wprdc.org/images/pittsburgh/steps/Ballinger_St_from_Edgebrook_Ave_to_Heber_Way.jpg,Brookline,4,32,42003320600,5,32,6,4-25,40.40115194,-80.00273987
1800935282,Barry St from Josephine St to Mission St,DOMI - Signs and Markings,1947-01-01,Concrete,474,78,,,,,,,,https://tools.wprdc.org/images/pittsburgh/steps/Barry_St_from_Josephine_St_to_Mission_St.jpg,South Side Slopes,3,16,42003160800,3,16,3,4-24,40.42342772,-79.96991869
1078917649,Barry St from Mission St to Holt St West,4th Division,1947-01-01,Concrete,113,58,,,,,,,,https://tools.wprdc.org/images/pittsburgh/steps/Barry_St_from_Mission_St_to_Holt_St_West.jpg,South Side Slopes,3,16,42003160800,3,16,3,4-22,40.42229012,-79.97066956
1728342157,Barry St from Mission to Holt St East,4th Division,1947-01-01,Concrete,127,32,0,100,904,45,4,1,5,https://tools.wprdc.org/images/pittsburgh/steps/Barry_St_from_Mission_to_Holt_St_East.jpg,South Side Slopes,3,16,42003160800,3,16,3,4-22,40.42234841,-79.97051424
574534527,Basin St from Province St to Goettmann St,1st Division,1950-01-01,Concrete,278,93,1,3,657,29,4,3,9,https://tools.wprdc.org/images/pittsburgh/steps/Basin_St_from_Province_St_to_Goettmann_St.jpg,Troy Hill,1,24,42003240600,1,24,1,1-2,40.45780529,-79.98997601
1167452566,Basin St from Voskamp St to Brabec St,1st Division,1950-01-01,Concrete,345,188,0,100,795,14,6,7,10,https://tools.wprdc.org/images/pittsburgh/steps/Basin_St_from_Voskamp_St_to_Brabec_St.jpg,Troy Hill,1,24,42003240600,1,24,1,1-5,40.45911502,-79.99008077
195103106,Bates St near Frazier St from Hodge St to Bates St,3rd Division,,Wood,77,32,0,100,647,89,6,6,8,https://tools.wprdc.org/images/pittsburgh/steps/Bates_St_near_Frazier_St_from_Hodge_St_to_Bates_St.jpg,South Oakland,3,4,42003040900,3,4,4,2-11,40.4329744,-79.95871002
1548014701,Bayonne Ave from Napoleon St to Alverado Ave,5th Division,,Wood,88,95,0,100,700,13,2,1,1,https://tools.wprdc.org/images/pittsburgh/steps/Bayonne_Ave_from_Napoleon_St_to_Alverado_Ave.jpg,Beechview,2,20,42003191600,5,20,6,4-28,40.41429515,-80.02899726
1801022361,Beckman St from Gass Ave to Leonora St,1st Division,1947-01-01,Concrete,12,4,,,,,,,,https://tools.wprdc.org/images/pittsburgh/steps/Beckman_St_from_Gass_Ave_to_Leonora_St.jpg,Brighton Heights,1,27,42003270300,1,27,1,1-14,40.47660962,-80.03467973
955299807,Beeler St at Olympia Way from Beeler St,3rd Division,,Concrete,84,60,0,100,458,112,3,1,1,https://tools.wprdc.org/images/pittsburgh/steps/Beeler_St_at_Olympia_Way_from_Beeler_St.jpg,Squirrel Hill North,8,14,42003140100,3,14,4,2-26,40.44515372,-79.93488129
1580385882,Behring St from Arlington Ave,4th Division,,Wood,94,41,0,100,192,6,2,5,4,https://tools.wprdc.org/images/pittsburgh/steps/Behring_St_from_Arlington_Ave.jpg,South Side Slopes,3,17,42003170600,3,17,3,4-5,40.42562973,-79.99047362
669695407,Belasco Ave from Cagwin St to Broadway Ave,5th Division,1951-01-01,Concrete,185,93,1,7,1062,295,9,4,8,https://tools.wprdc.org/images/pittsburgh/steps/Belasco_Ave_from_Cagwin_St_to_Broadway_Ave.jpg,Beechview,4,19,42003192000,5,19,6,4-28,40.40738539,-80.0272707
400744307,Belasco Ave from Dead End,5th Division,,Concrete,130,12,0,100,359,0,1,1,1,https://tools.wprdc.org/images/pittsburgh/steps/Belasco_Ave_from_Dead_End.jpg,Beechview,4,19,42003191600,5,19,6,4-28,40.41305973,-80.02754979
1709810042,Belasco from Coast St to Broadway Ave,5th Division,1951-01-01,Concrete,302,80,,,,,,,,https://tools.wprdc.org/images/pittsburgh/steps/Belasco_from_Coast_St_to_Broadway_Ave.jpg,Beechview,4,19,42003192000,5,19,6,4-28,40.40810551,-80.02738555
100488773,Belle Isle Ave from Plainview Ave to Dabney Way,4th Division,1947-01-01,Concrete,171,71,0,100,924,88,9,7,6,https://tools.wprdc.org/images/pittsburgh/steps/Belle_Isle_Ave_from_Plainview_Ave_to_Dabney_Way.jpg,Brookline,4,19,42003191900,5,19,6,4-26,40.40003321,-80.02115428
247303903,Belle Isle Ave from W Liberty Ave to Woodward Ave,4th Division,1945-01-01,Concrete,361,60,,,,,,,,https://tools.wprdc.org/images/pittsburgh/steps/Belle_Isle_Ave_from_W_Liberty_Ave_to_Woodward_Ave.jpg,Brookline,4,19,42003191700,5,19,6,4-26,40.40011979,-80.02298322
1098705666,Belle Isle Ave from Woodward Ave to Plainview Ave,4th Division,1947-01-01,Concrete,183,14,0,100,726,119,9,8,7,https://tools.wprdc.org/images/pittsburgh/steps/Belle_Isle_Ave_from_Woodward_Ave_to_Plainview_Ave.jpg,Brookline,4,19,42003191900,5,19,6,4-26,40.40000595,-80.02197011
163257873,Berg St from Eleanor St to Berg St,4th Division,,Concrete,47,9,,,,,,,,https://tools.wprdc.org/images/pittsburgh/steps/Berg_St_from_Eleanor_St_to_Berg_St.jpg,South Side Slopes,3,16,42003160800,3,16,3,4-22,40.41982902,-79.97277309
1377129115,Berg St from Sterling St to Berg St,4th Division,,Wood,100,43,0,100,639,7,4,6,5,https://tools.wprdc.org/images/pittsburgh/steps/Berg_St_from_Sterling_St_to_Berg_St.jpg,South Side Slopes,3,16,42003160800,3,16,3,4-22,40.41988402,-79.97394707
1922206738,Bernd St from Zelda Way to Althea St,4th Division,1988-01-01,Concrete,421,89,0,100,880,85,7,5,7,https://tools.wprdc.org/images/pittsburgh/steps/Bernd_St_from_Zelda_Way_to_Althea_St.jpg,Beltzhoover,3,18,42003562400,5,18,3,4-21,40.41491231,-79.99815941
2059364940,Bernd St from Zelda Way to Michigan St,4th Division,1988-01-01,Concrete,70,17,,,,,,,,https://tools.wprdc.org/images/pittsburgh/steps/Bernd_St_from_Zelda_Way_to_Michigan_St.jpg,Beltzhoover,3,18,42003562400,5,18,3,4-21,40.41573371,-79.99821453
345831275,Bernhardt Way from Harry St to Webster St,3rd Division,,Wood,35,11,0,100,215,3,3,9,5,https://tools.wprdc.org/images/pittsburgh/steps/Bernhardt_Way_from_Harry_St_to_Webster_St.jpg,Upper Hill,6,5,42003050600,3,5,2,2-24,40.45700459,-79.95686916
1853196305,Berwick St from Chatsworth St to Monongahela St,3rd Division,1947-01-01,Concrete,254,54,,,,,,,,https://tools.wprdc.org/images/pittsburgh/steps/Berwick_St_from_Chatsworth_St_to_Monongahela_St.jpg,Hazelwood,5,15,42003562900,3,15,4,2-13,40.41336522,-79.94417811
626881503,Berwick St from Monongahela St to Sylvan Ave,3rd Division,1947-01-01,Concrete,246,64,1,2,302,59,4,5,4,https://tools.wprdc.org/images/pittsburgh/steps/Berwick_St_from_Monongahela_St_to_Sylvan_Ave.jpg,Hazelwood,5,15,42003562900,3,15,4,2-13,40.41366743,-79.94330003
1906621722,Bigelow Blvd at Frank Curto Park,1st Division,,Concrete,154,65,0,100,15,0,1,1,1,https://tools.wprdc.org/images/pittsburgh/steps/Bigelow_Blvd_at_Frank_Curto_Park.jpg,Strip District,7,2,42003020300,6,2,2,2-6,40.45192837,-79.97661314
1313957774,Bigelow Blvd Opposite Frank Curto Park,3rd Division,1949-01-01,Concrete,335,115,0,100,112,0,1,1,1,https://tools.wprdc.org/images/pittsburgh/steps/Bigelow_Blvd_Opposite_Frank_Curto_Park.jpg,Bedford Dwellings,6,5,42003050900,3,5,2,2-5,40.45022192,-79.97899867
1908042348,Bigger St from Seabolt Way to Montooth St,4th Division,,Brick,140,,,,,,,,,https://tools.wprdc.org/images/pittsburgh/steps/Bigger_St_from_Seabolt_Way_to_Montooth_St.jpg,Beltzhoover,3,18,42003562400,5,18,3,4-16,40.41524833,-80.00616422
863355450,Bigger St from Taft Ave,4th Division,,Brick,15,12,,,,,,,,https://tools.wprdc.org/images/pittsburgh/steps/Bigger_St_from_Taft_Ave.jpg,Beltzhoover,3,18,42003562400,5,18,3,4-16,40.41513517,-80.00733852
456495334,Bigger St from Taft Ave to Seabolt Way,4th Division,,Brick,138,,,,,,,,,https://tools.wprdc.org/images/pittsburgh/steps/Bigger_St_from_Taft_Ave_to_Seabolt_Way.jpg,Beltzhoover,3,18,42003562400,5,18,3,4-16,40.41524239,-80.00678063
1433156078,Biggs Ave from Glenrose St to Pedder Way,1st Division,1946-01-01,Concrete,174,53,0,100,421,33,3,5,4,https://tools.wprdc.org/images/pittsburgh/steps/Biggs_Ave_from_Glenrose_St_to_Pedder_Way.jpg,Perry South,1,25,42003250900,1,25,1,1-10,40.46528802,-80.00572797
1697071823,Birchland St from Bellaire Pl to Dahlia Way,4th Division,,Concrete,118,21,,,,,,,,https://tools.wprdc.org/images/pittsburgh/steps/Birchland_St_from_Bellaire_Pl_to_Dahlia_Way.jpg,Brookline,4,32,42003320600,5,32,6,4-26,40.39329584,-80.00945981
2114026238,Birchland St from Brookline Blvd to Fitch Way,4th Division,,Concrete,111,0,,,,,,,,https://tools.wprdc.org/images/pittsburgh/steps/Birchland_St_from_Brookline_Blvd_to_Fitch_Way.jpg,Brookline,4,32,42003320600,5,32,6,4-26,40.39255516,-80.00934942
491538370,Birchland St from Fitch Way to Bellaire Pl,4th Division,,Concrete,115,0,,,,,,,,https://tools.wprdc.org/images/pittsburgh/steps/Birchland_St_from_Fitch_Way_to_Bellaire_Pl.jpg,Brookline,4,32,42003320600,5,32,6,4-26,40.39290653,-80.00938026
67822743,Blanton St from Minnesota St,3rd Division,1931-01-01,Concrete,9,5,,,,,,,,https://tools.wprdc.org/images/pittsburgh/steps/Blanton_St_from_Minnesota_St.jpg,Greenfield,5,15,42003151700,3,15,4,2-12,40.42434176,-79.93835836
480412872,Blanton St to Minnesota St,3rd Division,1931-01-01,Concrete,63,19,0,100,1088,168,10,7,9,https://tools.wprdc.org/images/pittsburgh/steps/Blanton_St_to_Minnesota_St.jpg,Greenfield,5,15,42003151700,3,15,4,2-12,40.4244658,-79.93830337
2007855380,Bluebelle St from Perrysville Ave to Amos Way,1st Division,,Wood,145,61,1,2,499,81,4,3,2,https://tools.wprdc.org/images/pittsburgh/steps/Bluebelle_St_from_Perrysville_Ave_to_Amos_Way.jpg,Perry North,1,26,42003260200,1,26,1,1-15,40.49446353,-80.02075101
1819976926,Blvd of the Allies From Parkview Ave to Juno St,3rd Division,,Wood,82,73,0,100,1329,103,10,10,10,https://tools.wprdc.org/images/pittsburgh/steps/Blvd_of_the_Allies_From_Parkview_Ave_to_Juno_St.jpg,Central Oakland,3,4,42003040600,3,4,4,2-11,40.43443477,-79.95151614
1689856118,Bly St from Royal St to Dead End,1st Division,1949-01-01,Concrete,130,48,,,,,,,,https://tools.wprdc.org/images/pittsburgh/steps/Bly_St_from_Royal_St_to_Dead_End.jpg,Spring Hill-City View,1,26,42003262000,1,26,1,1-11,40.46731434,-79.99803266
1298217489,Bodkin St to Brookline Blvd,DOMI - Signs and Markings,,Wood,30,21,1,10,1068,204,10,9,10,https://tools.wprdc.org/images/pittsburgh/steps/Bodkin_St_to_Brookline_Blvd.jpg,Brookline,4,19,42003191900,5,19,6,4-26,40.39625655,-80.02386049
925841624,Boulder Way from Christy St to Glen Mawr St,5th Division,1947-01-01,Concrete,98,,0,100,682,0,5,7,5,https://tools.wprdc.org/images/pittsburgh/steps/Boulder_Way_from_Christy_St_to_Glen_Mawr_St.jpg,Sheraden,2,20,42003562500,5,20,6,1-16,40.45936417,-80.05487054
2056686793,Boulder Way from Stafford St to Christy St,5th Division,1947-01-01,Concrete,108,,0,100,647,0,4,6,4,https://tools.wprdc.org/images/pittsburgh/steps/Boulder_Way_from_Stafford_St_to_Christy_St.jpg,Sheraden,2,20,42003562500,5,20,6,1-16,40.45956164,-80.05453013
431720845,Boustead St from Broadway Ave,5th Division,,Concrete,530,76,,,,,,,,https://tools.wprdc.org/images/pittsburgh/steps/Boustead_St_from_Broadway_Ave.jpg,Beechview,2,20,42003192000,5,20,6,4-28,40.40529705,-80.03079085
2139916971,Boustead St from Hillgrove Ave,5th Division,,Concrete,135,59,,,,,,,,https://tools.wprdc.org/images/pittsburgh/steps/Boustead_St_from_Hillgrove_Ave.jpg,Beechview,2,20,42003192000,5,20,6,4-28,40.4049561,-80.03207827
576370457,Brereton St from Herron Ave,3rd Division,,Concrete,12,7,,,,,,,,https://tools.wprdc.org/images/pittsburgh/steps/Brereton_St_from_Herron_Ave.jpg,Polish Hill,7,6,42003060500,6,6,2,2-6,40.4566822,-79.96539058
1970851874,Brereton St to Phelan Way,3rd Division,1951-01-01,Concrete,116,,1,9,830,69,8,7,10,https://tools.wprdc.org/images/pittsburgh/steps/Brereton_St_to_Phelan_Way.jpg,Polish Hill,7,6,42003060500,6,6,2,2-6,40.45641388,-79.96736369
1912335213,Brighton Heights Blvd,1st Division,,Concrete,53,24,1,9,625,209,10,10,6,https://tools.wprdc.org/images/pittsburgh/steps/Brighton_Heights_Blvd.jpg,Brighton Heights,1,27,42003270300,1,27,1,1-14,40.47956617,-80.04281787
127845340,Brossville St at E Warrington Ave,4th Division,,Concrete,12,7,,,,,,,,https://tools.wprdc.org/images/pittsburgh/steps/Brossville_St_at_E_Warrington_Ave.jpg,Allentown,3,18,42003180300,5,18,3,4-6,40.4218453,-79.99169085
2104739584,Brownsville Rd and Knox Ave,4th Division,,Concrete,10,2,,,,,,,,https://tools.wprdc.org/images/pittsburgh/steps/Brownsville_Rd_and_Knox_Ave.jpg,Knoxville,3,30,42003300100,5,30,3,4-7,40.41075191,-79.99029277
1738105971,Brushton Ave and Monticello St,Construction,1945-01-01,Concrete,333,173,2,10,975,136,10,8,10,https://tools.wprdc.org/images/pittsburgh/steps/Brushton_Ave_and_Monticello_St.jpg,Homewood North,9,13,42003130100,2,13,5,3-17,40.45810438,-79.88763236
161796133,Bryn Mawr Rd at Centre Ave,3rd Division,,Concrete,25,6,,,,,,,,https://tools.wprdc.org/images/pittsburgh/steps/Bryn_Mawr_Rd_at_Centre_Ave.jpg,Upper Hill,6,5,42003050600,3,5,2,2-23,40.44917755,-79.95757764
615475645,Bryn Mawr Rd to Clarissa St,3rd Division,1949-01-01,Concrete,215,69,1,9,1075,119,9,6,9,https://tools.wprdc.org/images/pittsburgh/steps/Bryn_Mawr_Rd_to_Clarissa_St.jpg,Upper Hill,6,5,42003050600,3,5,2,2-22,40.4530265,-79.96071857
1244308039,Burr St from Fisher St to Ormsby St,4th Division,,Wood,128,34,1,4,575,42,5,6,5,https://tools.wprdc.org/images/pittsburgh/steps/Burr_St_from_Fisher_St_to_Ormsby_St.jpg,Mt. Oliver,3,16,42003561700,3,16,3,4-8,40.41163142,-79.97800819
611644108,Butler St at Baker St,2nd Division,1958-01-01,Concrete,101,61,0,100,78,0,1,1,1,https://tools.wprdc.org/images/pittsburgh/steps/Butler_St_at_Baker_St.jpg,Morningside,7,10,42003101400,2,10,5,3-7,40.48919761,-79.93147599
47848814,Butler St near 62nd St Bridge to Sawyer St,2nd Division,,Wood,112,87,0,100,88,5,1,1,1,https://tools.wprdc.org/images/pittsburgh/steps/Butler_St_near_62nd_St_Bridge_to_Sawyer_St.jpg,Stanton Heights,7,10,42003101800,2,10,5,3-7,40.48796858,-79.93727715
859870438,Butler St to Sawyer St,2nd Division,1949-01-01,Concrete,129,87,0,100,80,6,2,7,2,https://tools.wprdc.org/images/pittsburgh/steps/Butler_St_to_Sawyer_St.jpg,Stanton Heights,7,10,42003101800,2,10,5,3-7,40.48708995,-79.94018288
758668959,Byron St from Melwood Ave to Gold Way,3rd Division,1949-01-01,Concrete,97,14,0,100,202,12,2,5,4,https://tools.wprdc.org/images/pittsburgh/steps/Byron_St_from_Melwood_Ave_to_Gold_Way.jpg,North Oakland,6,5,42003562000,3,5,4,2-23,40.45725538,-79.95459348
36558457,Caeser Way from Sterling St,4th Division,,Wood,80,52,0,100,605,67,3,1,5,https://tools.wprdc.org/images/pittsburgh/steps/Caeser_Way_from_Sterling_St.jpg,South Side Slopes,3,16,42003160800,3,16,3,4-22,40.42270959,-79.97348512
1438496025,California Ave from Eckert St to Knapp St,1st Division,1923-01-01,Concrete,349,119,0,100,664,94,5,2,5,https://tools.wprdc.org/images/pittsburgh/steps/California_Ave_from_Eckert_St_to_Knapp_St.jpg,Marshall-Shadeland,1,27,42003271500,1,27,1,1-14,40.47116156,-80.0361748
2064170340,Candace St from Crosby Ave to Shiras Ave,5th Division,,Concrete,130,56,0,100,744,418,10,7,6,https://tools.wprdc.org/images/pittsburgh/steps/Candace_St_from_Crosby_Ave_to_Shiras_Ave.jpg,Beechview,4,19,42003192000,5,19,6,4-28,40.40408086,-80.0320601
488343298,Canton Ave from Coast Ave to Hampshire Ave,5th Division,,Concrete,250,54,,,,,,,,https://tools.wprdc.org/images/pittsburgh/steps/Canton_Ave_from_Coast_Ave_to_Hampshire_Ave.jpg,Beechview,4,19,42003191600,5,19,6,4-28,40.40944987,-80.03002222
1961733621,Caperton St from Fordyce St to Conniston Ave,4th Division,1947-01-01,Concrete,357,57,,,,,,,,https://tools.wprdc.org/images/pittsburgh/steps/Caperton_St_from_Fordyce_St_to_Conniston_Ave.jpg,Bon Air,4,18,42003562400,5,18,3,4-7,40.4096561,-80.00000844
756027237,Caramel Way to Webster Ave,3rd Division,1949-01-01,Concrete,72,35,1,10,893,237,10,9,10,https://tools.wprdc.org/images/pittsburgh/steps/Caramel_Way_to_Webster_Ave.jpg,Middle Hill,6,5,42003050100,3,5,2,2-5,40.44850343,-79.97456283
1529995894,Carnahan Rd at Younger Ave from Banksville Ave,5th Division,,Concrete,140,74,1,2,281,10,2,4,2,https://tools.wprdc.org/images/pittsburgh/steps/Carnahan_Rd_at_Younger_Ave_from_Banksville_Ave.jpg,Banksville,2,20,42003202300,5,20,6,4-9,40.40681022,-80.0360274
1845636601,Carnegie St,2nd Division,,Wood,30,9,,,,,,,,https://tools.wprdc.org/images/pittsburgh/steps/Carnegie_St.jpg,Upper Lawrenceville,7,10,42003101100,2,10,2,3-5,40.48417159,-79.94667032
1162495077,Carrie St from Sprain St to Carrie St,1st Division,,Concrete,225,106,0,100,422,19,4,8,7,https://tools.wprdc.org/images/pittsburgh/steps/Carrie_St_from_Sprain_St_to_Carrie_St.jpg,Fineview,1,25,42003250900,1,25,1,1-10,40.4613302,-80.0013722
983831506,Cedarhurst St from Arlington Ave to Ibis Way,4th Division,1953-01-01,Concrete,45,39,0,100,1278,777,10,4,8,https://tools.wprdc.org/images/pittsburgh/steps/Cedarhurst_St_from_Arlington_Ave_to_Ibis_Way.jpg,Knoxville,3,18,42003300100,5,18,3,4-6,40.41850495,-79.98857936
1248590957,Cedarville Way from Juniper St to Lorigan St,2nd Division,1952-01-01,Concrete,33,20,0,100,1031,0,7,8,8,https://tools.wprdc.org/images/pittsburgh/steps/Cedarville_Way_from_Juniper_St_to_Lorigan_St.jpg,Bloomfield,7,8,42003080200,2,8,5,3-1,40.45839529,-79.95146706
1153095685,Cemetery Ave from Morris Ave,1st Division,,Wood,12,7,,,,,,,,https://tools.wprdc.org/images/pittsburgh/steps/Cemetery_Ave_from_Morris_Ave.jpg,Fineview,1,25,42003250900,1,25,1,1-10,40.46247158,-80.00615454
1240212642,Centre Ave at Bigelow Blvd to Schenley Farms Terrace,3rd Division,,Stone,85,49,0,100,325,76,2,1,2,https://tools.wprdc.org/images/pittsburgh/steps/Centre_Ave_at_Bigelow_Blvd_to_Schenley_Farms_Terrace.jpg,Upper Hill,6,5,42003050600,3,5,2,2-22,40.45095022,-79.95506793
715652331,Chartiers Ave and Azalia St,5th Division,,Concrete,122,14,1,10,782,184,10,10,10,https://tools.wprdc.org/images/pittsburgh/steps/Chartiers_Ave_and_Azalia_St.jpg,Elliott,2,20,42003562600,5,20,6,1-17,40.44507236,-80.0415589
824709829,Chartiers Ave from Danley St to Praego St,5th Division,,Concrete,50,18,0,100,102,22,4,10,3,https://tools.wprdc.org/images/pittsburgh/steps/Chartiers_Ave_from_Danley_St_to_Praego_St.jpg,Crafton Heights,2,20,42003562600,5,20,6,1-17,40.44908562,-80.04467676
698854103,Chauncey St from Centre  to Mahon St,3rd Division,1947-01-01,Concrete,272,60,1,3,545,155,6,5,9,https://tools.wprdc.org/images/pittsburgh/steps/Chauncey_St_from_Centre__to_Mahon_St.jpg,Middle Hill,6,5,42003050100,3,5,2,2-5,40.44639658,-79.97258284
1375227318,Chestnut St from Itin St to Vista St,1st Division,1984-01-01,Concrete,174,97,0,100,910,64,8,7,10,https://tools.wprdc.org/images/pittsburgh/steps/Chestnut_St_from_Itin_St_to_Vista_St.jpg,East Allegheny,1,23,42003563200,1,23,1,1-5,40.45839898,-79.99569186
1346373462,Clairhaven St from Arnold St to Norwalk St,5th Division,1945-01-01,Concrete/Wood,292,67,1,7,627,13,5,8,3,https://tools.wprdc.org/images/pittsburgh/steps/Clairhaven_St_from_Arnold_St_to_Norwalk_St.jpg,Crafton Heights,2,28,42003281500,5,28,6,1-18,40.44008311,-80.05199602
395759308,Clover St from Commanche Way to Eccles St,4th Division,1946-01-01,Concrete,102,,1,10,1389,145,10,7,10,https://tools.wprdc.org/images/pittsburgh/steps/Clover_St_from_Commanche_Way_to_Eccles_St.jpg,South Side Slopes,3,16,42003160800,3,16,3,4-22,40.41821,-79.97121789
338739954,Clover St from Eccles St to Arlington Ave,4th Division,1946-01-01,Concrete,125,,1,9,1467,154,10,5,10,https://tools.wprdc.org/images/pittsburgh/steps/Clover_St_from_Eccles_St_to_Arlington_Ave.jpg,South Side Slopes,3,16,42003160800,3,16,3,4-22,40.41783936,-79.97130506
2145741003,Clover St from Elsie St to Charcot St,4th Division,,Concrete,140,0,,,,,,,,https://tools.wprdc.org/images/pittsburgh/steps/Clover_St_from_Elsie_St_to_Charcot_St.jpg,Arlington,3,16,42003561600,3,16,3,4-8,40.4166152,-79.97155484
1849415445,Clover St from Spring St to Elsie St,4th Division,,Concrete,135,0,,,,,,,,https://tools.wprdc.org/images/pittsburgh/steps/Clover_St_from_Spring_St_to_Elsie_St.jpg,Arlington,3,16,42003561600,3,16,3,4-8,40.41618329,-79.97162861
358530708,Clover St from Wellington Way to Cobden St,4th Division,,Wood,120,42,1,8,1004,36,6,5,9,https://tools.wprdc.org/images/pittsburgh/steps/Clover_St_from_Wellington_Way_to_Cobden_St.jpg,South Side Slopes,3,16,42003160800,3,16,3,4-22,40.42019407,-79.97088745
1895849559,Coast Ave from Broadway Ave to Methyl St.,5th Division,1945-01-01,Concrete,160,35,,,,,,,,https://tools.wprdc.org/images/pittsburgh/steps/Coast_Ave_from_Broadway_Ave_to_Methyl_St..jpg,Beechview,4,19,42003191600,5,19,6,4-28,40.40870209,-80.02521318
819842221,Coast Ave from Dagmar Ave to Fallowfield Ave,5th Division,1952-01-01,Concrete,220,101,0,100,1398,1146,10,6,10,https://tools.wprdc.org/images/pittsburgh/steps/Coast_Ave_from_Dagmar_Ave_to_Fallowfield_Ave.jpg,Beechview,4,19,42003192000,5,19,6,4-28,40.40875408,-80.02317239
428021060,Coast Ave from Methyl St. to Rutherford Ave,5th Division,1945-01-01,Concrete,222,38,,,,,,,,https://tools.wprdc.org/images/pittsburgh/steps/Coast_Ave_from_Methyl_St._to_Rutherford_Ave.jpg,Beechview,4,19,42003191600,5,19,6,4-28,40.40867656,-80.02599237
698011969,Coleman St from Alger St to Neeb St East,3rd Division,,Concrete,312,68,,,,,,,,https://tools.wprdc.org/images/pittsburgh/steps/Coleman_St_from_Alger_St_to_Neeb_St_East.jpg,Greenfield,5,15,42003151600,3,15,4,2-12,40.42692794,-79.94212776
1815435996,Coleman St from Alger St to Neeb St West,3rd Division,,Concrete,313,60,,,,,,,,https://tools.wprdc.org/images/pittsburgh/steps/Coleman_St_from_Alger_St_to_Neeb_St_West.jpg,Greenfield,5,15,42003151600,3,15,4,2-12,40.42690548,-79.94221895
29614145,Colmar St from Blessing to Bernhardt Way,3rd Division,1949-01-01,Concrete,375,120,0,100,333,12,2,3,3,https://tools.wprdc.org/images/pittsburgh/steps/Colmar_St_from_Blessing_to_Bernhardt_Way.jpg,Upper Hill,6,5,42003050600,3,5,2,2-24,40.45775584,-79.9575511
1902457886,Cologne St from Berg St to Cobden St East,4th Division,1949-01-01,Concrete,145,98,0,100,733,52,6,6,7,https://tools.wprdc.org/images/pittsburgh/steps/Cologne_St_from_Berg_St_to_Cobden_St_East.jpg,South Side Slopes,3,16,42003160800,3,16,3,4-22,40.41947187,-79.96907852
1002130456,Cologne St from Berg St to Cobden St West,4th Division,1949-01-01,Concrete,132,,,,,,,,,https://tools.wprdc.org/images/pittsburgh/steps/Cologne_St_from_Berg_St_to_Cobden_St_West.jpg,South Side Slopes,3,16,42003160800,3,16,3,4-22,40.41949078,-79.96917952
951433808,Cologne St from Patterson St to Berg St,4th Division,1949-01-01,Concrete,275,80,1,6,787,59,6,4,7,https://tools.wprdc.org/images/pittsburgh/steps/Cologne_St_from_Patterson_St_to_Berg_St.jpg,South Side Slopes,3,16,42003160800,3,16,3,4-22,40.41903314,-79.96925182
1679883763,Como St from St Joseph St to Ormsby St,4th Division,1953-01-01,Concrete,211,41,1,3,538,80,5,5,4,https://tools.wprdc.org/images/pittsburgh/steps/Como_St_from_St_Joseph_St_to_Ormsby_St.jpg,Mt. Oliver,3,16,42003561700,3,16,3,4-8,40.41316236,-79.9792561
2011605507,Complete St to Geyer Ave,1st Division,,Wood,110,63,0,100,527,35,6,9,7,https://tools.wprdc.org/images/pittsburgh/steps/Complete_St_to_Geyer_Ave.jpg,Marshall-Shadeland,1,27,42003271500,1,27,1,1-14,40.47339924,-80.03344339
554399718,Copperfield Ave from Dellrose St to Brownsville Rd,4th Division,1949-01-01,Concrete,122,,,,,,,,,https://tools.wprdc.org/images/pittsburgh/steps/Copperfield_Ave_from_Dellrose_St_to_Brownsville_Rd.jpg,Carrick,4,29,42003290100,3,29,3,4-12,40.39607278,-79.98762972
280549115,Copperfield Ave from Dellrose St to Brownsville Rd North,4th Division,1949-01-01,Concrete,122,,,,,,,,,https://tools.wprdc.org/images/pittsburgh/steps/Copperfield_Ave_from_Dellrose_St_to_Brownsville_Rd_North.jpg,Carrick,4,29,42003290100,3,29,3,4-12,40.39617083,-79.9877075
1693036499,Copperfield Ave from Mt Joseph St,4th Division,1949-01-01,Concrete,181,,,,,,,,,https://tools.wprdc.org/images/pittsburgh/steps/Copperfield_Ave_from_Mt_Joseph_St.jpg,Carrick,4,29,42003290100,3,29,3,4-23,40.39521487,-79.99005141
1522080906,Copperfield Ave from Mt Joseph St to Oakhurst Way,4th Division,1949-01-01,Concrete,167,29,,,,,,,,https://tools.wprdc.org/images/pittsburgh/steps/Copperfield_Ave_from_Mt_Joseph_St_to_Oakhurst_Way.jpg,Carrick,4,29,42003290100,3,29,3,4-23,40.39546854,-79.98933282
1507364933,Copperfield Ave from Oakhurst St to Westmont St North,4th Division,1949-01-01,Concrete,142,,,,,,,,,https://tools.wprdc.org/images/pittsburgh/steps/Copperfield_Ave_from_Oakhurst_St_to_Westmont_St_North.jpg,Carrick,4,29,42003290100,3,29,3,4-23,40.39581335,-79.98881257
425252495,Copperfield Ave from Oakhurst Way to Westmont Ave,4th Division,1949-01-01,Concrete,140,,,,,,,,,https://tools.wprdc.org/images/pittsburgh/steps/Copperfield_Ave_from_Oakhurst_Way_to_Westmont_Ave.jpg,Carrick,4,29,42003290100,3,29,3,4-23,40.3957054,-79.98872085
927539104,Copperfield Ave from Westmont Ave to Dellrose St,4th Division,1949-01-01,Concrete,142,,,,,,,,,https://tools.wprdc.org/images/pittsburgh/steps/Copperfield_Ave_from_Westmont_Ave_to_Dellrose_St.jpg,Carrick,4,29,42003290100,3,29,3,4-23,40.39589302,-79.98813398
1928094888,Copperfield Ave from Westmont St to Dellrose St North,4th Division,1949-01-01,Concrete,142,,,,,,,,,https://tools.wprdc.org/images/pittsburgh/steps/Copperfield_Ave_from_Westmont_St_to_Dellrose_St_North.jpg,Carrick,4,29,42003290100,3,29,3,4-23,40.39599618,-79.98819432
1349385582,Courtright St to Wing Way,1st Division,1944-01-01,Concrete,86,4,0,100,803,351,7,2,6,https://tools.wprdc.org/images/pittsburgh/steps/Courtright_St_to_Wing_Way.jpg,Marshall-Shadeland,1,27,42003271500,1,27,1,1-14,40.47539592,-80.03105841
815033386,Cowan St from Southern Ave to Greenbush St,5th Division,1950-01-01,Concrete,300,43,1,10,1317,126,10,9,10,https://tools.wprdc.org/images/pittsburgh/steps/Cowan_St_from_Southern_Ave_to_Greenbush_St.jpg,Mount Washington,2,19,42003191400,5,19,3,4-27,40.427564,-80.0085743
827262460,Crimson Ave from Traymore Ave to Sebring Ave,5th Division,1950-01-01,Concrete,226,51,0,100,146,25,3,9,2,https://tools.wprdc.org/images/pittsburgh/steps/Crimson_Ave_from_Traymore_Ave_to_Sebring_Ave.jpg,Beechview,4,19,42003191600,5,19,6,4-28,40.4120321,-80.01302711
1081703269,Croessus Way from East Busway to Flavian St,3rd Division,,Concrete,150,54,0,100,462,14,2,1,2,https://tools.wprdc.org/images/pittsburgh/steps/Croessus_Way_from_East_Busway_to_Flavian_St.jpg,Polish Hill,7,6,42003060500,6,6,2,2-6,40.4596069,-79.96175844
1670748752,Crosby Ave from Broadway Ave,5th Division,,Asphalt/Concrete,21,19,,,,,,,,https://tools.wprdc.org/images/pittsburgh/steps/Crosby_Ave_from_Broadway_Ave.jpg,Beechview,4,19,42003192000,5,19,6,4-28,40.4050276,-80.03030115
2022266670,Cushman St to Number 37,5th Division,,Wood,25,21,0,100,1040,33,4,1,3,https://tools.wprdc.org/images/pittsburgh/steps/Cushman_St_to_Number_37.jpg,Mount Washington,3,18,42003180700,5,18,3,4-5,40.42647548,-80.00427008
767101869,Cust St from Gate Lodge Way to Sunnyside St,3rd Division,,Concrete,126,,1,4,543,51,5,6,8,https://tools.wprdc.org/images/pittsburgh/steps/Cust_St_from_Gate_Lodge_Way_to_Sunnyside_St.jpg,Hazelwood,5,15,42003562300,3,15,4,2-13,40.40223401,-79.94013309
425764357,Cust St from Second Ave to Gate Lodge Way,3rd Division,,Concrete,217,69,1,2,534,51,3,3,6,https://tools.wprdc.org/images/pittsburgh/steps/Cust_St_from_Second_Ave_to_Gate_Lodge_Way.jpg,Hazelwood,5,15,42003562300,3,15,4,2-13,40.40191027,-79.94044826
1025967250,Cust St from Sunnyside St to Shrub Way,3rd Division,1948-01-01,Concrete,135,52,1,4,517,50,5,6,8,https://tools.wprdc.org/images/pittsburgh/steps/Cust_St_from_Sunnyside_St_to_Shrub_Way.jpg,Hazelwood,5,15,42003562300,3,15,4,2-13,40.40249379,-79.93972862
2100303975,Custer Ave from Brinwood Ave to Kirk Ave,4th Division,1964-01-01,Concrete,310,101,0,100,579,14,4,5,2,https://tools.wprdc.org/images/pittsburgh/steps/Custer_Ave_from_Brinwood_Ave_to_Kirk_Ave.jpg,Carrick,4,29,42003290400,3,29,3,4-15,40.39280539,-79.97776221
437598672,Custer Street from Kirk Ave to Spencer Ave,4th Division,,Concrete,142,25,,,,,,,,https://tools.wprdc.org/images/pittsburgh/steps/Custer_Street_from_Kirk_Ave_to_Spencer_Ave.jpg,Carrick,4,29,42003290400,3,29,3,4-15,40.39298502,-79.97685128
1600958546,Cuthbert St form Gaskel St to Lauria Way,5th Division,1985-01-01,Concrete,102,30,,,,,,,,https://tools.wprdc.org/images/pittsburgh/steps/Cuthbert_St_form_Gaskel_St_to_Lauria_Way.jpg,Mount Washington,2,19,42003191400,5,19,3,4-27,40.42974634,-80.00894649
2142073153,Cuthbert St from Natchez St to Gaskel St,5th Division,1985-01-01,Concrete,104,44,,,,,,,,https://tools.wprdc.org/images/pittsburgh/steps/Cuthbert_St_from_Natchez_St_to_Gaskel_St.jpg,Mount Washington,2,19,42003191400,5,19,3,4-27,40.42943685,-80.00922017
1399256346,Cutler St from Wilson Ave to Perrysville Ave,1st Division,,Concrete,317,106,,,,,,,,https://tools.wprdc.org/images/pittsburgh/steps/Cutler_St_from_Wilson_Ave_to_Perrysville_Ave.jpg,Perry South,6,26,42003261400,1,26,1,1-12,40.46601652,-80.01231464
2084301892,Dagmar Ave from Tonopah Ave to Alturia St,5th Division,,Wood,42,44,0,100,1018,0,7,9,7,https://tools.wprdc.org/images/pittsburgh/steps/Dagmar_Ave_from_Tonopah_Ave_to_Alturia_St.jpg,Beechview,4,19,42003192000,5,19,6,4-28,40.40740771,-80.02254053
681152155,Daisey St from Veteran St to Sherlock St,1st Division,1965-01-01,Concrete,99,26,,,,,,,,https://tools.wprdc.org/images/pittsburgh/steps/Daisey_St_from_Veteran_St_to_Sherlock_St.jpg,Perry South,6,26,42003261500,1,26,1,1-23,40.47346734,-80.00873813
1197024939,Dale St from Noblestown Rd to Code Way,5th Division,,Wood,105,43,1,9,762,61,8,8,4,https://tools.wprdc.org/images/pittsburgh/steps/Dale_St_from_Noblestown_Rd_to_Code_Way.png,Westwood,2,28,42003563100,5,28,6,1-18,40.43500768,-80.0507424
1944803063,Dartmore St from Englert St,4th Division,,Concrete,70,8,,,,,,,,https://tools.wprdc.org/images/pittsburgh/steps/Dartmore_St_from_Englert_St.jpg,Overbrook,4,32,42003320400,5,32,3,4-23,40.38854982,-79.99609997
641016805,De Witt St from Griffin St to Burson Way North,5th Division,1988-01-01,Concrete,80,13,,,,,,,,https://tools.wprdc.org/images/pittsburgh/steps/De_Witt_St_from_Griffin_St_to_Burson_Way_North.jpg,Mount Washington,2,19,42003191400,5,19,3,4-27,40.424488,-80.00972873
1130610250,Delger St from Nina Way to Loyal Way,1st Division,,Wood,31,25,0,100,658,37,7,10,8,https://tools.wprdc.org/images/pittsburgh/steps/Delger_St_from_Nina_Way_to_Loyal_Way.jpg,Perry South,6,26,42003261500,1,26,1,1-23,40.4725264,-80.01438432
209043195,Delmont Ave from Climax St to Loyal Way,4th Division,1948-01-01,Concrete,108,,,,,,,,,https://tools.wprdc.org/images/pittsburgh/steps/Delmont_Ave_from_Climax_St_to_Loyal_Way.jpg,Beltzhoover,3,18,42003562400,5,18,3,4-16,40.41921754,-80.00419923
1254442177,Delmont Ave from Industry St to Proxim Way,4th Division,1948-01-01,Concrete,113,23,,,,,,,,https://tools.wprdc.org/images/pittsburgh/steps/Delmont_Ave_from_Industry_St_to_Proxim_Way.jpg,Beltzhoover,3,18,42003562400,5,18,3,4-16,40.41994245,-80.00453317
906517361,Delmont Ave from Nina Way to Industry St,4th Division,1948-01-01,Concrete,112,19,,,,,,,,https://tools.wprdc.org/images/pittsburgh/steps/Delmont_Ave_from_Nina_Way_to_Industry_St.jpg,Beltzhoover,3,18,42003562400,5,18,3,4-16,40.42031823,-80.00463466
362684587,Delmont Ave from Proxim Way to Climax St,4th Division,1948-01-01,Concrete,106,39,0,100,513,255,8,6,8,https://tools.wprdc.org/images/pittsburgh/steps/Delmont_Ave_from_Proxim_Way_to_Climax_St.jpg,Beltzhoover,3,18,42003562400,5,18,3,4-16,40.4196239,-80.00438833
1401475151,Dengler St,4th Division,,Concrete,196,14,0,100,576,191,5,1,2,https://tools.wprdc.org/images/pittsburgh/steps/Dengler_St.jpg,Arlington,3,16,42003561600,3,16,3,4-8,40.41662889,-79.96770573
1249762755,Devon Rd and Warrick Terrace from 5th Ave,3rd Division,,Concrete,245,98,0,100,1492,545,10,8,10,https://tools.wprdc.org/images/pittsburgh/steps/Devon_Rd_and_Warrick_Terrace_from_5th_Ave.jpg,Squirrel Hill North,8,14,42003140100,3,14,4,2-26,40.44718037,-79.94019853
843120491,Dewitt St from Griffin St to Burson Way,5th Division,1988-01-01,Concrete,212,29,,,,,,,,https://tools.wprdc.org/images/pittsburgh/steps/Dewitt_St_from_Griffin_St_to_Burson_Way.jpg,Mount Washington,2,19,42003191500,5,19,3,4-27,40.42442764,-80.00976858
1311257894,Dewitt St from Southern Ave to Griffin St,5th Division,1975-01-01,Concrete,125,33,0,100,1383,93,10,10,9,https://tools.wprdc.org/images/pittsburgh/steps/Dewitt_St_from_Southern_Ave_to_Griffin_St.jpg,Mount Washington,2,19,42003191500,5,19,3,4-27,40.42452543,-80.01012749
1806789258,Diana St from Homer St to Diana St,1st Division,1946-01-01,Concrete,133,108,0,100,533,65,7,10,9,https://tools.wprdc.org/images/pittsburgh/steps/Diana_St_from_Homer_St_to_Diana_St.jpg,Spring Hill-City View,1,24,42003262000,1,24,1,1-24,40.46233759,-79.98909565
358347226,Diana St from Ives Way to Itin St,1st Division,,Concrete,30,14,,,,,,,,https://tools.wprdc.org/images/pittsburgh/steps/Diana_St_from_Ives_Way_to_Itin_St.jpg,Spring Hill-City View,1,24,42003262000,1,24,1,1-24,40.46193466,-79.991783
1886235238,Dickson St from California Ave to Holbrook St,1st Division,1948-01-01,Concrete,113,17,,,,,,,,https://tools.wprdc.org/images/pittsburgh/steps/Dickson_St_from_California_Ave_to_Holbrook_St.jpg,Marshall-Shadeland,1,27,42003271500,1,27,1,1-14,40.468791,-80.03524976
1120265257,Dickson St from Holbrook St to Pitler St,1st Division,1948-01-01,Concrete,116,,,,,,,,,https://tools.wprdc.org/images/pittsburgh/steps/Dickson_St_from_Holbrook_St_to_Pitler_St.jpg,Marshall-Shadeland,1,27,42003271500,1,27,1,1-14,40.46889293,-80.03475507
1658991702,Dickson St from Pitler St to Plough St,1st Division,1948-01-01,Concrete,406,43,1,3,667,113,5,2,6,https://tools.wprdc.org/images/pittsburgh/steps/Dickson_St_from_Pitler_St_to_Plough_St.jpg,Marshall-Shadeland,1,27,42003271500,1,27,1,1-14,40.46905245,-80.03398492
1790779487,Diulus Way from Boundary St to Bouquet St,3rd Division,1949-01-01,Concrete,200,99,0,100,2026,0,7,8,9,https://tools.wprdc.org/images/pittsburgh/steps/Diulus_Way_from_Boundary_St_to_Bouquet_St.jpg,Central Oakland,3,4,42003040600,3,4,4,2-11,40.439181,-79.95104389
213537103,Doak Way from Dalton Ave to Dornestic St,1st Division,1949-01-01,Concrete,108,,0,100,267,0,3,8,2,https://tools.wprdc.org/images/pittsburgh/steps/Doak_Way_from_Dalton_Ave_to_Dornestic_St.jpg,Perry North,1,26,42003260200,1,26,1,1-15,40.49093792,-80.02652395
2087378860,Doak Way from Oakdale St to Dalton Ave,1st Division,1949-01-01,Concrete,225,,0,100,253,0,2,6,1,https://tools.wprdc.org/images/pittsburgh/steps/Doak_Way_from_Oakdale_St_to_Dalton_Ave.jpg,Perry North,1,26,42003260200,1,26,1,1-15,40.49070695,-80.02712402
1323791787,Dornbush St from Bricelyn St to Fahnestock St,2nd Division,1950-01-01,Concrete,410,,1,2,603,30,2,1,5,https://tools.wprdc.org/images/pittsburgh/steps/Dornbush_St_from_Bricelyn_St_to_Fahnestock_St.jpg,East Hills,9,13,42003130600,2,13,5,3-17,40.45423451,-79.87874465
41754884,Dornbush St from Fahnestock St to Calistoga St,2nd Division,1950-01-01,Concrete,524,,1,2,587,7,2,1,4,https://tools.wprdc.org/images/pittsburgh/steps/Dornbush_St_from_Fahnestock_St_to_Calistoga_St.jpg,East Hills,9,13,42003130600,2,13,5,3-17,40.45322788,-79.87748512
1385526213,Downing St from Herron Ave to Hancock St,3rd Division,1948-01-01,Concrete,129,81,0,100,666,231,7,4,7,https://tools.wprdc.org/images/pittsburgh/steps/Downing_St_from_Herron_Ave_to_Hancock_St.jpg,Polish Hill,7,6,42003060500,6,6,2,2-6,40.45880293,-79.96604575
351683365,Dressing Way from Marietta St to Premo St,2nd Division,1950-01-01,Concrete,154,90,0,100,115,9,2,4,1,https://tools.wprdc.org/images/pittsburgh/steps/Dressing_Way_from_Marietta_St_to_Premo_St.jpg,Stanton Heights,7,10,42003101800,2,10,5,3-7,40.48860508,-79.9286085
2086315948,Dubois St from India St to Dickens St,5th Division,,Concrete,275,12,,,,,,,,https://tools.wprdc.org/images/pittsburgh/steps/Dubois_St_from_India_St_to_Dickens_St.jpg,Crafton Heights,2,20,42003281400,5,20,6,1-16,40.44996289,-80.05103645
569524168,Duffield St from Morningside Ave to Duffield,2nd Division,,Concrete,2,2,,,,,,,,https://tools.wprdc.org/images/pittsburgh/steps/Duffield_St_from_Morningside_Ave_to_Duffield.jpg,Morningside,7,10,42003101400,2,10,5,3-7,40.47678484,-79.93170033
1852100834,Duncan St from Leydon St to Kendall St,2nd Division,1951-01-01,Wood,101,43,1,9,907,0,6,7,6,https://tools.wprdc.org/images/pittsburgh/steps/Duncan_St_from_Leydon_St_to_Kendall_St.jpg,Upper Lawrenceville,7,10,42003101100,2,10,2,3-5,40.48124902,-79.94805022
1937783333,E  Cherryhill St from Amanda to Brownsville Rd,4th Division,1949-01-01,Concrete,201,60,,,,,,,,https://tools.wprdc.org/images/pittsburgh/steps/E__Cherryhill_St_from_Amanda_to_Brownsville_Rd.jpg,Carrick,4,29,42003290200,3,29,3,4-12,40.39856701,-79.98819807
1533046429,E  Cherryhill St from Concordia St to Amanda St,4th Division,1949-01-01,Concrete,169,31,2,7,1271,233,9,2,8,https://tools.wprdc.org/images/pittsburgh/steps/E__Cherryhill_St_from_Concordia_St_to_Amanda_St.jpg,Carrick,4,29,42003290200,3,29,3,4-12,40.39869971,-79.98746405
1475103503,E  Woodford Ave from Fromm Way to Hazeldell St,4th Division,,Concrete,151,61,,,,,,,,https://tools.wprdc.org/images/pittsburgh/steps/E__Woodford_Ave_from_Fromm_Way_to_Hazeldell_St.jpg,Carrick,4,29,42003290200,3,29,3,4-12,40.39327203,-79.98484991
149457826,E Burgess St from Maple Ave to Osgood St,1st Division,,Concrete,210,35,,,,,,,,https://tools.wprdc.org/images/pittsburgh/steps/E_Burgess_St_from_Maple_Ave_to_Osgood_St.jpg,Perry South,6,26,42003261400,1,26,1,1-22,40.4678343,-80.00824652
1674986827,E Burgess St from Perrysville Ave to Maple Ave,1st Division,,Concrete,288,,,,,,,,,https://tools.wprdc.org/images/pittsburgh/steps/E_Burgess_St_from_Perrysville_Ave_to_Maple_Ave.jpg,Perry South,6,26,42003261400,1,26,1,1-22,40.46764454,-80.00925771
568253734,E Jefferson St at Arch St to Perrysville Ave,1st Division,1948-01-01,Concrete,257,131,0,100,853,86,9,7,8,https://tools.wprdc.org/images/pittsburgh/steps/E_Jefferson_St_at_Arch_St_to_Perrysville_Ave.jpg,Central Northside,6,25,42003250300,1,25,1,1-10,40.459676,-80.0100322
2119023507,E Sycamore St at Wyoming St,5th Division,,Concrete,7,5,,,,,,,,https://tools.wprdc.org/images/pittsburgh/steps/E_Sycamore_St_at_Wyoming_St.jpg,Mount Washington,2,19,42003191400,5,19,3,4-27,40.43016976,-80.00636296
1427214027,E Warrington Ave from St Thomas St to Mt Oliver St,4th Division,,,193,34,,,,,,,,https://tools.wprdc.org/images/pittsburgh/steps/E_Warrington_Ave_from_St_Thomas_St_to_Mt_Oliver_St.jpg,South Side Slopes,3,17,42003170600,3,17,3,4-6,40.42210241,-79.9860232
1847198619,Eckert St from Mullins St to Hartman St,1st Division,,Wood,572,32,1,4,960,78,6,1,5,https://tools.wprdc.org/images/pittsburgh/steps/Eckert_St_from_Mullins_St_to_Hartman_St.jpg,Marshall-Shadeland,1,27,42003271500,1,27,1,1-14,40.47131727,-80.03200679
63558540,Eddington St from Kilbourne St to Kinglake St,3rd Division,1949-01-01,Concrete,289,170,0,100,132,0,2,7,3,https://tools.wprdc.org/images/pittsburgh/steps/Eddington_St_from_Kilbourne_St_to_Kinglake_St.jpg,Hazelwood,5,15,42003562300,3,15,4,2-13,40.41220612,-79.93487933
1190678091,Edgebrook Ave from Bellaire Ave to Fitch Way,4th Division,,Concrete,124,13,,,,,,,,https://tools.wprdc.org/images/pittsburgh/steps/Edgebrook_Ave_from_Bellaire_Ave_to_Fitch_Way.jpg,Brookline,4,19,42003320600,5,19,6,4-26,40.39262607,-80.01506759
1577463443,Edgebrook Ave from Fitch Way to Brookline Blvd,4th Division,,Concrete,105,12,,,,,,,,https://tools.wprdc.org/images/pittsburgh/steps/Edgebrook_Ave_from_Fitch_Way_to_Brookline_Blvd.jpg,Brookline,4,19,42003320600,5,19,6,4-26,40.39227458,-80.01515113
796337141,Edgerton Ave from Hastings St to S. Linden Ave,2nd Division,,Concrete,138,27,0,100,1150,59,8,5,5,https://tools.wprdc.org/images/pittsburgh/steps/Edgerton_Ave_from_Hastings_St_to_S._Linden_Ave.jpg,Point Breeze,8,14,42003140400,3,14,4,2-17,40.44920112,-79.91446857
1780662846,Elbon Way from Harker St to Wymore St,5th Division,1947-01-01,Concrete,188,,1,6,640,80,6,6,9,https://tools.wprdc.org/images/pittsburgh/steps/Elbon_Way_from_Harker_St_to_Wymore_St.jpg,Elliott,2,20,42003562600,5,20,6,1-17,40.44086817,-80.04194911
1725800560,Elbon Way from Weston Way to Herschel St,5th Division,1947-01-01,Concrete,125,,1,6,568,71,6,7,8,https://tools.wprdc.org/images/pittsburgh/steps/Elbon_Way_from_Weston_Way_to_Herschel_St.jpg,Elliott,2,20,42003562600,5,20,6,1-17,40.44032108,-80.04275512
1021306396,Elbon Way from Wymore St to Weston Way,5th Division,1947-01-01,Concrete,86,,1,7,573,64,6,8,8,https://tools.wprdc.org/images/pittsburgh/steps/Elbon_Way_from_Wymore_St_to_Weston_Way.jpg,Elliott,2,20,42003562600,5,20,6,1-17,40.4405538,-80.042389
183336793,Eleanor St from Burham St to Wellington St,4th Division,1936-01-01,Concrete,245,0,,,,,,,,https://tools.wprdc.org/images/pittsburgh/steps/Eleanor_St_from_Burham_St_to_Wellington_St.jpg,South Side Slopes,3,16,42003160800,3,16,3,4-22,40.4209489,-79.97238997
251244402,Eleanor St from Eccles St to Arlington Ave,4th Division,,Concrete,168,0,,,,,,,,https://tools.wprdc.org/images/pittsburgh/steps/Eleanor_St_from_Eccles_St_to_Arlington_Ave.jpg,South Side Slopes,3,16,42003160800,3,16,3,4-22,40.417723,-79.97282315
1512373290,Eleanor St from Elsie St to Charcot St,4th Division,,Concrete,74,74,,,,,,,,https://tools.wprdc.org/images/pittsburgh/steps/Eleanor_St_from_Elsie_St_to_Charcot_St.jpg,Arlington,3,16,42003561600,3,16,3,4-8,40.41678881,-79.97308542
381952962,Eleanor St from Holt St to Keibs Way,4th Division,1936-01-01,Concrete,103,,,,,,,,,,South Side Slopes,3,16,42003160800,3,16,3,4-22,40.42192709,-79.97261088
133552382,Eleanor St from Josephine St to Leticoe St,4th Division,,Concrete,204,12,,,,,,,,https://tools.wprdc.org/images/pittsburgh/steps/Eleanor_St_from_Josephine_St_to_Leticoe_St.jpg,South Side Slopes,3,16,42003160800,3,16,3,4-24,40.4240134,-79.97257679
1239013384,Eleanor St from Keibs Way to Burham St,4th Division,1936-01-01,Concrete,137,0,,,,,,,,https://tools.wprdc.org/images/pittsburgh/steps/Eleanor_St_from_Keibs_Way_to_Burham_St.jpg,South Side Slopes,3,16,42003160800,3,16,3,4-22,40.42155128,-79.97254018
2101408902,Eleanor St from Leticoe St to Mission St,4th Division,1934-01-01,Concrete,154,,0,100,998,18,5,3,7,https://tools.wprdc.org/images/pittsburgh/steps/Eleanor_St_from_Leticoe_St_to_Mission_St.jpg,South Side Slopes,3,16,42003160800,3,16,3,4-24,40.42339815,-79.97261101
1231339754,Eleanor St from Mission St to Holt St,4th Division,1934-01-01,Concrete,333,,0,100,1076,14,5,2,7,https://tools.wprdc.org/images/pittsburgh/steps/Eleanor_St_from_Mission_St_to_Holt_St.jpg,South Side Slopes,3,16,42003160800,3,16,3,4-22,40.42262793,-79.97265774
305077687,Eleanor St from Salisbury St to Arlington Ave,4th Division,,Concrete,259,0,,,,,,,,https://tools.wprdc.org/images/pittsburgh/steps/Eleanor_St_from_Salisbury_St_to_Arlington_Ave.jpg,South Side Slopes,3,16,42003160800,3,16,3,4-22,40.4183795,-79.97269915
1664620721,Eleanor St from Spring St to Elsie St,4th Division,,Concrete,52,17,,,,,,,,https://tools.wprdc.org/images/pittsburgh/steps/Eleanor_St_from_Spring_St_to_Elsie_St.jpg,Arlington,3,16,42003561600,3,16,3,4-8,40.41634942,-79.97301854
1247078651,Eleanor St from Wellington St to Cobden St,4th Division,1936-01-01,Concrete,130,0,,,,,,,,https://tools.wprdc.org/images/pittsburgh/steps/Eleanor_St_from_Wellington_St_to_Cobden_St.jpg,South Side Slopes,3,16,42003160800,3,16,3,4-22,40.42039649,-79.97234859
826127611,Elgin St from King Ave to Elgin St,2nd Division,,Concrete,124,22,1,2,646,41,3,1,1,https://tools.wprdc.org/images/pittsburgh/steps/Elgin_St_from_King_Ave_to_Elgin_St.jpg,Highland Park,7,11,42003110200,2,11,5,3-9,40.4788777,-79.92550941
1826251052,Ella St from Lorigan Way to Minerva St,2nd Division,1949-01-01,Concrete,227,97,0,100,1038,209,8,2,8,https://tools.wprdc.org/images/pittsburgh/steps/Ella_St_from_Lorigan_Way_to_Minerva_St.jpg,Bloomfield,7,8,42003080200,2,8,5,3-1,40.46051292,-79.95395695
1610638147,Emerald Way from Arlington Ave to Carnival Way,4th Division,1945-01-01,Concrete,66,,1,10,1072,212,10,9,10,https://tools.wprdc.org/images/pittsburgh/steps/Emerald_Way_from_Arlington_Ave_to_Carnival_Way.jpg,Allentown,3,18,42003180300,5,18,3,4-5,40.42251567,-79.99160966
2092676939,Emerald Way from Carnival Way to Excelsior St,4th Division,1945-01-01,Concrete,56,23,1,10,1020,212,10,9,10,https://tools.wprdc.org/images/pittsburgh/steps/Emerald_Way_from_Carnival_Way_to_Excelsior_St.jpg,Allentown,3,18,42003180300,5,18,3,4-5,40.42271203,-79.9917411
1110487164,End of Lilac St to Rosemoor St,3rd Division,,Concrete,202,32,0,100,788,0,6,8,3,https://tools.wprdc.org/images/pittsburgh/steps/End_of_Lilac_St_to_Rosemoor_St.jpg,Squirrel Hill South,5,14,42003141400,3,14,4,2-15,40.42299125,-79.92170611
505721946,End of Olive St from Letsche St to Olive St,1st Division,,Wood,160,165,1,4,589,56,5,5,7,https://tools.wprdc.org/images/pittsburgh/steps/End_of_Olive_St_from_Letsche_St_to_Olive_St.jpg,Fineview,6,25,42003250900,1,25,1,1-10,40.46321505,-80.00820263
1134661112,End of Oltman St to Chartiers Ave,5th Division,1949-01-01,Concrete,279,81,0,100,448,43,4,5,2,https://tools.wprdc.org/images/pittsburgh/steps/End_of_Oltman_St_to_Chartiers_Ave.jpg,Chartiers City,2,20,42003563000,5,20,6,1-16,40.45712443,-80.06760763
1766567719,Enderlin Way and Crafton Blvd to Clearview Ave,5th Division,,Wood,17,18,0,100,769,23,7,10,5,https://tools.wprdc.org/images/pittsburgh/steps/Enderlin_Way_and_Crafton_Blvd_to_Clearview_Ave.jpg,Westwood,2,28,42003563100,5,28,6,1-18,40.43742402,-80.05738157
441018663,Endness from Corinth St,5th Division,1947-01-01,Concrete,263,,0,100,149,0,1,1,2,https://tools.wprdc.org/images/pittsburgh/steps/Endness_from_Corinth_St.jpg,West End,2,20,42003562600,5,20,6,1-18,40.43397849,-80.03440231
1540581502,Endness from Journal St,5th Division,1947-01-01,Concrete,207,,0,100,60,0,1,1,1,https://tools.wprdc.org/images/pittsburgh/steps/Endness_from_Journal_St.jpg,Ridgemont,2,20,42003563100,5,20,6,1-18,40.43350619,-80.03462145
1744897880,Endness St from Woodville Ave to Corinth St,5th Division,1947-01-01,Concrete,196,42,0,100,110,0,1,1,2,https://tools.wprdc.org/images/pittsburgh/steps/Endness_St_from_Woodville_Ave_to_Corinth_St.jpg,West End,2,20,42003562600,5,20,6,1-17,40.43444281,-80.0337236
943136202,Englert St from Dartmore St to Fairland St,4th Division,1948-01-01,Concrete,263,92,0,100,753,0,3,3,4,https://tools.wprdc.org/images/pittsburgh/steps/Englert_St_from_Dartmore_St_to_Fairland_St.jpg,Overbrook,4,32,42003320400,5,32,3,4-23,40.38844932,-79.99538851
1544975187,Eula St from Baytree to East St,1st Division,,Concrete,108,26,,,,,,,,https://tools.wprdc.org/images/pittsburgh/steps/Eula_St_from_Baytree_to_East_St.jpg,Perry North,1,26,42003260200,1,26,1,1-15,40.48816219,-80.0135839
1347853934,Eureka St from Aleppo Way to Estella Ave,5th Division,,Concrete,106,32,0,100,1621,96,7,2,6,https://tools.wprdc.org/images/pittsburgh/steps/Eureka_St_from_Aleppo_Way_to_Estella_Ave.jpg,Mount Washington,3,18,42003180700,5,18,3,4-5,40.42374856,-80.00121019
963849386,Eureka St from Haberman Ave to Laclede St,5th Division,,Concrete,52,29,0,100,1520,40,8,7,9,https://tools.wprdc.org/images/pittsburgh/steps/Eureka_St_from_Haberman_Ave_to_Laclede_St.jpg,Mount Washington,3,18,42003180700,5,18,3,4-5,40.42388138,-80.00283174
1068718145,Eureka St from Pasadena St to Aleppo Way,5th Division,,Concrete,18,8,0,100,1545,89,10,10,10,https://tools.wprdc.org/images/pittsburgh/steps/Eureka_St_from_Pasadena_St_to_Aleppo_Way.jpg,Mount Washington,3,18,42003180700,5,18,3,4-5,40.42376512,-80.0015207
1981021307,Ewarts Way from Centre Ave to Brackenridge St,3rd Division,1947-01-01,Concrete,228,56,0,100,587,231,9,7,9,https://tools.wprdc.org/images/pittsburgh/steps/Ewarts_Way_from_Centre_Ave_to_Brackenridge_St.jpg,Terrace Village,6,5,42003051000,3,5,2,2-10,40.44575741,-79.96875223
1350974365,Exposition Way at Minnesota St,3rd Division,,Brick/Concrete,6,6,,,,,,,,https://tools.wprdc.org/images/pittsburgh/steps/Exposition_Way_at_Minnesota_St.jpg,Greenfield,5,15,42003151700,3,15,4,2-12,40.42519994,-79.9392918
1604238081,Fadette St from Petty Way to Pritchard St,5th Division,,Wood,160,51,0,100,775,77,7,6,5,https://tools.wprdc.org/images/pittsburgh/steps/Fadette_St_from_Petty_Way_to_Pritchard_St.jpg,Sheraden,2,20,42003202200,5,20,6,1-16,40.45187178,-80.06523737
269508607,Fairacres Ave from Colebrook Ave to Tonopah Ave,5th Division,,Concrete,140,63,,,,,,,,https://tools.wprdc.org/images/pittsburgh/steps/Fairacres_Ave_from_Colebrook_Ave_to_Tonopah_Ave.jpg,Beechview,4,19,42003192000,5,19,6,4-28,40.40792922,-80.02090358
889763940,Fairdale St from Adon St to Jean St,5th Division,1948-01-01,Concrete,328,108,1,3,491,89,5,5,5,https://tools.wprdc.org/images/pittsburgh/steps/Fairdale_St_from_Adon_St_to_Jean_St.jpg,Sheraden,2,20,42003562500,5,20,6,1-16,40.45624494,-80.05974827
2009001088,Fairview St from Furley St to Uvilla St,5th Division,1947-01-01,Concrete,324,101,1,6,799,216,8,4,9,https://tools.wprdc.org/images/pittsburgh/steps/Fairview_St_from_Furley_St_to_Uvilla_St.jpg,Elliott,2,20,42003562600,5,20,6,1-17,40.4430343,-80.03811353
331883455,Fairview St from Plover Way to Valonia St,5th Division,,Concrete,122,16,,,,,,,,https://tools.wprdc.org/images/pittsburgh/steps/Fairview_St_from_Plover_Way_to_Valonia_St.jpg,Elliott,2,20,42003562600,5,20,6,1-17,40.44476249,-80.03536435
1569113383,Fallowfield  Ave at Broadway Ave from Dagmar Ave,DOMI - Signs and Markings,,Concrete,401,76,0,100,1274,851,8,1,7,https://tools.wprdc.org/images/pittsburgh/steps/Fallowfield__Ave_at_Broadway_Ave_from_Dagmar_Ave.jpg,Beechview,4,19,42003191600,5,19,6,4-28,40.4112327,-80.02303237
1542321241,Fan St from Glenbury St to Seldon Pl,4th Division,1949-01-01,Concrete/Wood,153,79,0,100,341,92,3,3,2,https://tools.wprdc.org/images/pittsburgh/steps/Fan_St_from_Glenbury_St_to_Seldon_Pl.jpg,Overbrook,4,32,42003320700,5,32,3,4-25,40.38409758,-79.99814969
150790760,Fannel St from Hillcrest St to Columbo St,2nd Division,1949-01-01,Concrete,347,122,0,100,884,34,4,2,5,https://tools.wprdc.org/images/pittsburgh/steps/Fannel_St_from_Hillcrest_St_to_Columbo_St.jpg,Garfield,9,10,42003101600,2,10,5,3-4,40.46844774,-79.93616025
1339080240,Farris St to Brighton Rd,1st Division,1949-01-01,Concrete,155,42,1,4,282,100,6,8,9,https://tools.wprdc.org/images/pittsburgh/steps/Farris_St_to_Brighton_Rd.jpg,Perry South,6,25,42003261500,1,25,1,1-12,40.46328289,-80.02063579
2105808731,Federal Hill Ave from Saline St to Luwick St,3rd Division,,Concrete,290,8,0,100,972,388,9,2,5,https://tools.wprdc.org/images/pittsburgh/steps/Federal_Hill_Ave_from_Saline_St_to_Luwick_St.jpg,Squirrel Hill South,5,14,42003141400,3,14,4,2-15,40.42102662,-79.92555061
1249419886,Ferndale St from N Wheeler St to Willing St,2nd Division,1950-01-01,Concrete,239,85,0,100,430,0,4,8,3,https://tools.wprdc.org/images/pittsburgh/steps/Ferndale_St_from_N_Wheeler_St_to_Willing_St.jpg,Homewood North,9,13,42003130100,2,13,5,3-17,40.45931262,-79.88533155
273458499,Fingal St,5th Division,,Concrete,268,26,,,,,,,,https://tools.wprdc.org/images/pittsburgh/steps/Fingal_St.jpg,Duquesne Heights,2,19,42003191100,5,19,3,4-1,40.43684613,-80.02789269
1405397851,Finland St from Bigelow Blvd to Ridgway St,3rd Division,1945-01-01,Concrete,218,109,0,100,151,5,3,9,4,https://tools.wprdc.org/images/pittsburgh/steps/Finland_St_from_Bigelow_Blvd_to_Ridgway_St.jpg,Polish Hill,7,6,42003060500,3,6,2,2-24,40.45777262,-79.96039392
485812725,Finland St from Bismark St to Ridgway St,3rd Division,1945-01-01,Concrete,144,51,0,100,172,3,1,1,1,https://tools.wprdc.org/images/pittsburgh/steps/Finland_St_from_Bismark_St_to_Ridgway_St.jpg,Polish Hill,7,6,42003060500,3,6,2,2-24,40.45747862,-79.96014878
468234215,Fisher St from Mountain Ave to Engstler St,4th Division,,Concrete,455,27,0,100,521,39,2,1,2,https://tools.wprdc.org/images/pittsburgh/steps/Fisher_St_from_Mountain_Ave_to_Engstler_St.jpg,St. Clair,3,16,42003561700,3,16,3,4-8,40.41146673,-79.97621789
2060642928,Fisher St from Otillia St to Gorgas St,4th Division,,Wood,13,14,2,10,889,67,9,9,8,https://tools.wprdc.org/images/pittsburgh/steps/Fisher_St_from_Otillia_St_to_Gorgas_St.jpg,Mt. Oliver,3,16,42003561700,3,16,3,4-8,40.41114465,-79.98136883
219654004,Fitler St frm Arlington Ave to Charcot St,4th Division,,Concrete,93,14,,,,,,,,https://tools.wprdc.org/images/pittsburgh/steps/Fitler_St_frm_Arlington_Ave_to_Charcot_St.jpg,Arlington,3,16,42003561600,3,16,3,4-8,40.41736364,-79.97037954
1413587139,Fitzhugh Way from Jillson Ave to Brookline Blvd,4th Division,,Concrete,140,9,1,1,551,105,4,1,4,https://tools.wprdc.org/images/pittsburgh/steps/Fitzhugh_Way_from_Jillson_Ave_to_Brookline_Blvd.jpg,Brookline,4,19,42003191900,5,19,6,4-26,40.39639161,-80.02691215
1915500455,Flavian St at Jewel St,3rd Division,1949-01-01,Concrete,24,13,0,100,510,17,2,1,2,https://tools.wprdc.org/images/pittsburgh/steps/Flavian_St_at_Jewel_St.jpg,Polish Hill,7,6,42003060500,6,6,2,2-6,40.459157,-79.96330286
1133966978,Flowers Ave at Nansen St,3rd Division,1947-01-01,Concrete,15,12,0,100,242,7,2,3,2,https://tools.wprdc.org/images/pittsburgh/steps/Flowers_Ave_at_Nansen_St.jpg,Hazelwood,5,15,42003562300,3,15,4,2-13,40.41219295,-79.93810065
953601589,Flowers Ave ext off Kilbourne to Clarion St,3rd Division,1948-01-01,Concrete,105,49,0,100,110,0,2,6,2,https://tools.wprdc.org/images/pittsburgh/steps/Flowers_Ave_ext_off_Kilbourne_to_Clarion_St.jpg,Hazelwood,5,15,42003562300,3,15,4,2-13,40.41377843,-79.93337176
1732219364,Forbes Ave at Normlee Place to Gladstone Rd,3rd Division,,Concrete,194,90,0,100,1262,320,10,10,10,https://tools.wprdc.org/images/pittsburgh/steps/Forbes_Ave_at_Normlee_Place_to_Gladstone_Rd.jpg,Squirrel Hill North,8,14,42003140100,3,14,4,2-8,40.44174344,-79.93726415
556729093,Forward Ave and Eldridge St,3rd Division,,Concrete,6,2,,,,,,,,https://tools.wprdc.org/images/pittsburgh/steps/Forward_Ave_and_Eldridge_St.jpg,Squirrel Hill South,5,14,42003140800,3,14,4,2-21,40.4295054,-79.92210308
819902084,Fountain St near James St to Graib St,Facilities,1948-01-01,Concrete,148,89,0,100,638,232,8,6,10,https://tools.wprdc.org/images/pittsburgh/steps/Fountain_St_near_James_St_to_Graib_St.jpg,Fineview,1,25,42003250900,1,25,1,1-10,40.45888588,-80.00258131
605215037,Francis St from Centennial Way to Webster Ave,3rd Division,1950-01-01,Concrete,222,46,2,8,842,165,10,6,9,https://tools.wprdc.org/images/pittsburgh/steps/Francis_St_from_Centennial_Way_to_Webster_Ave.jpg,Middle Hill,6,5,42003050100,3,5,2,2-5,40.45047497,-79.96962013
1518358924,Frank St from Exeter St to Montclair St East,3rd Division,,Brick/Asphalt,100,14,,,,,,,,https://tools.wprdc.org/images/pittsburgh/steps/Frank_St_from_Exeter_St_to_Montclair_St_East.jpg,Greenfield,5,15,42003151700,3,15,4,2-12,40.42038616,-79.93320657
477792698,Frank St from Exeter St to Montclair St West,3rd Division,,Brick/Asphalt,95,,,,,,,,,https://tools.wprdc.org/images/pittsburgh/steps/Frank_St_from_Exeter_St_to_Montclair_St_West.jpg,Greenfield,5,15,42003151700,3,15,4,2-12,40.42036572,-79.93334059
1907583066,Frank St from Melbourne St,3rd Division,,Brick/Asphalt,44,11,,,,,,,,https://tools.wprdc.org/images/pittsburgh/steps/Frank_St_from_Melbourne_St.jpg,Greenfield,5,15,42003151700,3,15,4,2-12,40.42188984,-79.93379312
927892168,Frank St from Montclair St East,3rd Division,,Concrete,65,18,,,,,,,,https://tools.wprdc.org/images/pittsburgh/steps/Frank_St_from_Montclair_St_East.jpg,Greenfield,5,15,42003151700,3,15,4,2-12,40.42070778,-79.93332324
751257759,Frank St from Montclair St West,3rd Division,,Brick/Asphalt,96,30,,,,,,,,https://tools.wprdc.org/images/pittsburgh/steps/Frank_St_from_Montclair_St_West.jpg,Greenfield,5,15,42003151700,3,15,4,2-12,40.42072412,-79.93345399
1348330381,Frankstown Rd near Tokay St to Perchment St,2nd Division,1949-01-01,Concrete,161,90,1,3,467,68,5,6,8,https://tools.wprdc.org/images/pittsburgh/steps/Frankstown_Rd_near_Tokay_St_to_Perchment_St.jpg,Homewood North,9,13,42003130100,2,13,5,3-17,40.45548504,-79.88171232
1963758533,Frazier St from Bates St,3rd Division,1947-01-01,Concrete,483,117,0,100,955,89,9,6,10,https://tools.wprdc.org/images/pittsburgh/steps/Frazier_St_from_Bates_St.jpg,South Oakland,3,4,42003040900,3,4,4,2-11,40.43242825,-79.95781235
1597308587,Freeland St from Mt Oliver St,4th Division,,Concrete,90,7,,,,,,,,https://tools.wprdc.org/images/pittsburgh/steps/Freeland_St_from_Mt_Oliver_St.jpg,Allentown,3,18,42003180300,5,18,3,4-6,40.41920345,-79.98836382
1711486026,Freeland St from Mt Oliver St to Arlington Ave,4th Division,,Concrete,242,62,,,,,,,,https://tools.wprdc.org/images/pittsburgh/steps/Freeland_St_from_Mt_Oliver_St_to_Arlington_Ave.jpg,Allentown,3,18,42003180300,5,18,3,4-6,40.41927845,-79.98867796
1408328877,Gallatin St from Baker St to Witherspoon St,2nd Division,1948-01-01,Concrete,133,72,0,100,583,48,6,8,4,https://tools.wprdc.org/images/pittsburgh/steps/Gallatin_St_from_Baker_St_to_Witherspoon_St.jpg,Morningside,7,10,42003101400,2,10,5,3-7,40.48727963,-79.92197414
809673701,Gallion Ave from Flatbush Ave East,4th Division,,Concrete,193,13,,,,,,,,https://tools.wprdc.org/images/pittsburgh/steps/Gallion_Ave_from_Flatbush_Ave_East.jpg,Brookline,4,19,42003191900,5,19,6,4-26,40.39534409,-80.01767769
1922395232,Gallion Ave to Glenarm Ave,4th Division,1950-01-01,Concrete,81,45,0,100,908,162,10,8,5,https://tools.wprdc.org/images/pittsburgh/steps/Gallion_Ave_to_Glenarm_Ave.jpg,Brookline,4,19,42003191900,5,19,6,4-26,40.39468446,-80.01670439
319004143,Gass Ave from Reuben St to Beckham St,1st Division,1947-01-01,Concrete,161,44,,,,,,,,https://tools.wprdc.org/images/pittsburgh/steps/Gass_Ave_from_Reuben_St_to_Beckham_St.jpg,Brighton Heights,1,27,42003270300,1,27,1,1-14,40.47639264,-80.03451659
645002256,Gass Ave from Woods Run Ave to Reuben St,1st Division,1947-01-01,Concrete,295,69,1,2,676,240,6,1,5,https://tools.wprdc.org/images/pittsburgh/steps/Gass_Ave_from_Woods_Run_Ave_to_Reuben_St.jpg,Brighton Heights,1,27,42003270300,1,27,1,1-14,40.47593103,-80.03430546
783745249,Georgia Ave from Arabella St to Marland St,4th Division,1948-01-01,Concrete,115,,0,100,815,3,6,8,5,https://tools.wprdc.org/images/pittsburgh/steps/Georgia_Ave_from_Arabella_St_to_Marland_St.jpg,Knoxville,3,30,42003300100,5,30,3,4-7,40.41279203,-79.99499673
1944603912,Georgia Ave from Marland St to Moore Ave,4th Division,1948-01-01,Concrete,130,,0,100,891,9,5,6,4,https://tools.wprdc.org/images/pittsburgh/steps/Georgia_Ave_from_Marland_St_to_Moore_Ave.jpg,Knoxville,3,30,42003300100,5,30,3,4-7,40.41240606,-79.99498197
1525425521,Girdley Way from Royal to Brahm St,1st Division,1949-01-01,Concrete,408,258,0,100,240,2,3,8,3,https://tools.wprdc.org/images/pittsburgh/steps/Girdley_Way_from_Royal_to_Brahm_St.jpg,Spring Hill-City View,1,26,42003262000,1,26,1,1-11,40.46634149,-79.99882392
909197323,Girdley Way to Staab St,1st Division,1949-01-01,Concrete,149,35,0,100,146,2,1,1,1,https://tools.wprdc.org/images/pittsburgh/steps/Girdley_Way_to_Staab_St.jpg,Spring Hill-City View,1,26,42003262000,1,26,1,1-11,40.4665372,-79.99882049
943044108,Glade St from Nobles Lane to Cloverdale St,4th Division,1948-01-01,Concrete,72,59,0,100,203,188,1,1,1,https://tools.wprdc.org/images/pittsburgh/steps/Glade_St_from_Nobles_Lane_to_Cloverdale_St.jpg,Carrick,4,29,42003290100,3,29,3,4-23,40.39894756,-79.99741861
656277607,Gladstone St from Home Rule St to Winderst St,3rd Division,1950-01-01,Concrete,625,140,0,100,507,0,4,7,3,https://tools.wprdc.org/images/pittsburgh/steps/Gladstone_St_from_Home_Rule_St_to_Winderst_St.jpg,Hazelwood,5,15,42003562900,3,15,4,2-12,40.41803035,-79.94331661
1220648836,Glasgow St from Narcissus Ave to Hammond St,5th Division,1951-01-01,Concrete,598,114,0,100,726,0,3,3,2,https://tools.wprdc.org/images/pittsburgh/steps/Glasgow_St_from_Narcissus_Ave_to_Hammond_St.jpg,Sheraden,2,20,42003562500,5,20,6,1-16,40.45710831,-80.04865968
2043525698,Glen Mawr St from W Carson St,5th Division,1949-01-01,Concrete,269,32,,,,,,,,https://tools.wprdc.org/images/pittsburgh/steps/Glen_Mawr_St_from_W_Carson_St.jpg,Esplen,2,20,42003562500,5,20,6,1-27,40.4540316,-80.04092443
203082435,Glen Mawr St from Zephyr Ave,5th Division,,Concrete,10,5,,,,,,,,https://tools.wprdc.org/images/pittsburgh/steps/Glen_Mawr_St_from_Zephyr_Ave.jpg,Sheraden,2,20,42003562500,5,20,6,1-16,40.45311428,-80.04950143
452385538,Glenbury St at Railroad Underpass to Pinecastle Ave,4th Division,1947-01-01,Concrete,75,55,0,100,465,93,5,4,3,https://tools.wprdc.org/images/pittsburgh/steps/Glenbury_St_at_Railroad_Underpass_to_Pinecastle_Ave.jpg,Overbrook,4,32,42003320700,5,32,3,4-25,40.38305624,-79.99774312
2122557754,Glendon St from Grassmere St to Pensdale St,5th Division,,Brick,222,72,0,100,404,1,4,9,4,https://tools.wprdc.org/images/pittsburgh/steps/Glendon_St_from_Grassmere_St_to_Pensdale_St.jpg,Oakwood,2,28,42003562800,5,28,6,1-19,40.42724991,-80.06422574
335074501,Glenhurst Rd to Lougean Ave,3rd Division,1953-01-01,Concrete/Wood,204,77,0,100,187,6,4,10,2,https://tools.wprdc.org/images/pittsburgh/steps/Glenhurst_Rd_to_Lougean_Ave.jpg,Lincoln Place,5,31,42003310200,3,31,4,4-20,40.37460864,-79.91794958
28996795,Glenroy  St from Carrick Ave,4th Division,,Concrete,113,8,,,,,,,,https://tools.wprdc.org/images/pittsburgh/steps/Glenroy__St_from_Carrick_Ave.jpg,Carrick,4,29,42003290400,3,29,3,4-15,40.39004471,-79.98153822
331641485,Government Way from 40th St to Fisk St,2nd Division,1948-01-01,Concrete,254,9,1,9,1756,514,10,5,9,https://tools.wprdc.org/images/pittsburgh/steps/Government_Way_from_40th_St_to_Fisk_St.jpg,Central Lawrenceville,7,9,42003090200,2,9,2,3-3,40.46672295,-79.95902845
316632576,Graib St from Howard St to Compromise St,1st Division,,Concrete,524,146,1,1,462,12,2,2,6,https://tools.wprdc.org/images/pittsburgh/steps/Graib_St_from_Howard_St_to_Compromise_St.jpg,East Allegheny,1,24,42003563200,1,24,1,1-6,40.4595364,-80.0005489
136783682,Graib St to Henderson St,Facilities,1948-01-01,Concrete,154,56,0,100,527,26,6,9,9,https://tools.wprdc.org/images/pittsburgh/steps/Graib_St_to_Henderson_St.jpg,Fineview,1,25,42003250900,1,25,1,1-10,40.45937571,-80.00247068
570661472,Granite St from Crockett Way to Orbin St,3rd Division,,Concrete,58,26,1,3,483,135,6,5,7,https://tools.wprdc.org/images/pittsburgh/steps/Granite_St_from_Crockett_Way_to_Orbin_St.jpg,Middle Hill,6,5,42003050100,3,5,2,2-5,40.45130148,-79.9661555
1313024429,Gray St at Dilworth St,5th Division,,Concrete,28,23,1,4,968,53,5,1,3,https://tools.wprdc.org/images/pittsburgh/steps/Gray_St_at_Dilworth_St.jpg,Mount Washington,2,19,42003191400,5,19,3,4-27,40.42665171,-80.01060126
162300196,Graymore St from Coast Ave to Hampshire Ave,5th Division,1951-01-01,Concrete,448,35,0,100,372,7,2,2,2,https://tools.wprdc.org/images/pittsburgh/steps/Graymore_St_from_Coast_Ave_to_Hampshire_Ave.jpg,Beechview,4,19,42003191600,5,19,6,4-28,40.40991328,-80.03099041
660127638,Greenfield Ave at Magee Playground to Blanton St,3rd Division,1931-01-01,Concrete,213,107,0,100,1240,178,10,8,10,https://tools.wprdc.org/images/pittsburgh/steps/Greenfield_Ave_at_Magee_Playground_to_Blanton_St.jpg,Greenfield,5,15,42003151700,3,15,4,2-12,40.42435726,-79.93793658
281523317,Greenfield Ave at Ronald St,3rd Division,,Concrete,25,24,0,100,850,199,7,1,5,https://tools.wprdc.org/images/pittsburgh/steps/Greenfield_Ave_at_Ronald_St.jpg,Greenfield,5,15,42003151700,3,15,4,2-12,40.42629415,-79.93844745
1186029206,Greenfield Ave at Swineburn Bridge to Waldeck St,3rd Division,1945-01-01,Concrete,218,128,0,100,415,52,3,3,2,https://tools.wprdc.org/images/pittsburgh/steps/Greenfield_Ave_at_Swineburn_Bridge_to_Waldeck_St.jpg,Greenfield,5,15,42003562900,3,15,4,2-12,40.42533941,-79.94974425
533543360,Greenfield Ave near Yoder St from Alexis St to Greenfield Ave,Construction,1947-01-01,Concrete,121,110,1,7,418,32,6,10,5,https://tools.wprdc.org/images/pittsburgh/steps/Greenfield_Ave_near_Yoder_St_from_Alexis_St_to_Greenfield_Ave.jpg,Greenfield,5,15,42003151600,3,15,4,2-12,40.4254627,-79.94751217
1137377090,Greenleaf St from Clarence St to Crooked Way,5th Division,,Brick/Asphalt,86,15,,,,,,,,https://tools.wprdc.org/images/pittsburgh/steps/Greenleaf_St_from_Clarence_St_to_Crooked_Way.jpg,Duquesne Heights,2,19,42003191100,5,19,3,4-1,40.43784258,-80.02438692
1050596900,Greenleaf St from Crooked Way to Edith St,5th Division,,Brick/Asphalt,97,8,,,,,,,,https://tools.wprdc.org/images/pittsburgh/steps/Greenleaf_St_from_Crooked_Way_to_Edith_St.jpg,Duquesne Heights,2,19,42003191100,5,19,3,4-1,40.43775276,-80.02400202
1421098856,Greenleaf St from Seward St to Republic St North,5th Division,,Asphalt/Concrete,216,17,,,,,,,,https://tools.wprdc.org/images/pittsburgh/steps/Greenleaf_St_from_Seward_St_to_Republic_St_North.jpg,Duquesne Heights,2,19,42003191100,5,19,3,4-1,40.43870377,-80.0261708
767924127,Greenleaf St from Seward St tp Republic St South,5th Division,,Asphalt/Concrete,190,2,,,,,,,,https://tools.wprdc.org/images/pittsburgh/steps/Greenleaf_St_from_Seward_St_tp_Republic_St_South.jpg,Duquesne Heights,2,19,42003191100,5,19,3,4-1,40.43863133,-80.02623743
114855028,Greenleaf St from Shaler St to Seward St,5th Division,,Concrete/Wood,411,74,0,100,722,27,5,5,3,https://tools.wprdc.org/images/pittsburgh/steps/Greenleaf_St_from_Shaler_St_to_Seward_St.jpg,Duquesne Heights,2,19,42003191100,5,19,3,4-1,40.43824285,-80.02549786
1052333015,Greentree Rd to Ridgemont Dr,5th Division,,Concrete,35,12,0,100,250,0,1,1,1,https://tools.wprdc.org/images/pittsburgh/steps/Greentree_Rd_to_Ridgemont_Dr.jpg,Ridgemont,2,20,42003563100,5,20,6,1-18,40.42910358,-80.03991258
108871512,Greenwood St from El Paso St to Nolo Way,2nd Division,1948-01-01,Concrete,112,20,,,,,,,,https://tools.wprdc.org/images/pittsburgh/steps/Greenwood_St_from_El_Paso_St_to_Nolo_Way.jpg,Stanton Heights,7,10,42003101800,2,10,5,3-7,40.48753508,-79.92891233
1523024722,Greenwood St from Morningside Ave to El Paso St,2nd Division,1948-01-01,Concrete/Wood,255,83,,,,,,,,https://tools.wprdc.org/images/pittsburgh/steps/Greenwood_St_from_Morningside_Ave_to_El_Paso_St.jpg,Stanton Heights,7,10,42003101800,2,10,5,3-7,40.48715463,-79.92836784
724275199,Gribble St from Dewey Ave to Waldorf St,1st Division,1946-01-01,Concrete,240,160,0,100,314,22,5,10,3,https://tools.wprdc.org/images/pittsburgh/steps/Gribble_St_from_Dewey_Ave_to_Waldorf_St.jpg,Perry North,1,26,42003260200,1,26,1,1-15,40.49037723,-80.01176345
1695094604,Grimes Ave from Kernal Way to Suncrest St,4th Division,,Brick,136,34,0,100,1077,395,10,7,8,https://tools.wprdc.org/images/pittsburgh/steps/Grimes_Ave_from_Kernal_Way_to_Suncrest_St.jpg,Knoxville,3,30,42003300100,5,30,3,4-7,40.41092914,-79.99290807
1493546687,Grizella St from Bonvue St to Waldorf St,1st Division,,Concrete,139,39,2,4,718,164,7,4,6,https://tools.wprdc.org/images/pittsburgh/steps/Grizella_St_from_Bonvue_St_to_Waldorf_St.jpg,Perry North,1,26,42003260200,1,26,1,1-15,40.49047633,-80.01665186
1013512264,Groyne St to Dead End,1st Division,,Wood,48,34,0,100,116,0,1,1,1,https://tools.wprdc.org/images/pittsburgh/steps/Groyne_St_to_Dead_End.jpg,Perry North,1,26,42003260700,1,26,1,1-15,40.48558615,-80.01197745
513859601,Guyland St from Noblestown Rd to Guyland St,5th Division,,Concrete,216,45,,,,,,,,https://tools.wprdc.org/images/pittsburgh/steps/Guyland_St_from_Noblestown_Rd_to_Guyland_St.jpg,Westwood,2,28,42003563100,5,28,6,1-18,40.4328346,-80.05042243
177726197,Haberman Ave from Chalfont St to Orient Way,4th Division,,Brick,112,12,1,6,635,68,6,6,5,https://tools.wprdc.org/images/pittsburgh/steps/Haberman_Ave_from_Chalfont_St_to_Orient_Way.jpg,Beltzhoover,3,18,42003562400,5,18,3,4-16,40.41683438,-80.00236926
867610732,Haberman Ave from E  Warrington Ave to Industry St,4th Division,,Brick/Asphalt,105,19,1,7,961,288,9,3,9,https://tools.wprdc.org/images/pittsburgh/steps/Haberman_Ave_from_E__Warrington_Ave_to_Industry_St.jpg,Beltzhoover,3,18,42003562400,5,18,3,4-16,40.42082546,-80.00240229
1281553216,Haberman Ave from E Warrington Ave to Industry St West,4th Division,,Concrete/Wood,112,11,,,,,,,,https://tools.wprdc.org/images/pittsburgh/steps/Haberman_Ave_from_E_Warrington_Ave_to_Industry_St_West.jpg,Beltzhoover,3,18,42003562400,5,18,3,4-16,40.42083192,-80.0025053
1525375403,Haberman Ave from Freeland St to Lehr Way,4th Division,,Brick/Asphalt,106,7,1,7,661,126,8,6,9,https://tools.wprdc.org/images/pittsburgh/steps/Haberman_Ave_from_Freeland_St_to_Lehr_Way.jpg,Beltzhoover,3,18,42003562400,5,18,3,4-16,40.41881512,-80.00235628
1544881881,Haberman Ave from Industry to Proxim Way,4th Division,,,115,0,,,,,,,,https://tools.wprdc.org/images/pittsburgh/steps/Haberman_Ave_from_Industry_to_Proxim_Way.jpg,Beltzhoover,3,18,42003562400,5,18,3,4-16,40.42045845,-80.00239053
2139070026,Haberman Ave from Loyal Way to Freeland St,4th Division,,Concrete,151,40,1,7,674,102,7,6,9,https://tools.wprdc.org/images/pittsburgh/steps/Haberman_Ave_from_Loyal_Way_to_Freeland_St.jpg,Beltzhoover,3,18,42003562400,5,18,3,4-16,40.41927956,-80.00232417
37771314,Haberman Ave from Orient Way to Sylvania Ave,4th Division,,Concrete,107,6,1,6,646,68,6,6,5,https://tools.wprdc.org/images/pittsburgh/steps/Haberman_Ave_from_Orient_Way_to_Sylvania_Ave.jpg,Beltzhoover,3,18,42003562400,5,18,3,4-16,40.41717895,-80.00235475
1564520811,Haberman Ave from Proxim Way to Climax St.,4th Division,,,97,,,,,,,,,https://tools.wprdc.org/images/pittsburgh/steps/Haberman_Ave_from_Proxim_Way_to_Climax_St..jpg,Beltzhoover,3,18,42003562400,5,18,3,4-16,40.42011194,-80.00236997
1945100903,Habit Way from Howard St to Compromise St,1st Division,1947-01-01,Concrete,211,144,0,100,323,19,2,5,4,https://tools.wprdc.org/images/pittsburgh/steps/Habit_Way_from_Howard_St_to_Compromise_St.jpg,Fineview,1,24,42003250900,1,24,1,1-6,40.46098514,-80.00055658
1223609326,Hall St and Wardwell St,1st Division,1948-01-01,Concrete,296,71,,,,,,,,https://tools.wprdc.org/images/pittsburgh/steps/Hall_St_and_Wardwell_St.jpg,Marshall-Shadeland,1,27,42003271500,1,27,1,1-14,40.4766606,-80.02736664
1362618629,Halpin St from Leipsic Way to Natchez St,5th Division,1952-01-01,Concrete,95,,1,10,1294,114,10,10,10,https://tools.wprdc.org/images/pittsburgh/steps/Halpin_St_from_Leipsic_Way_to_Natchez_St.jpg,Mount Washington,2,19,42003191400,5,19,3,4-27,40.42888687,-80.01055924
2003648552,Halpin St from Maple Terrace to Belonda St,5th Division,1952-01-01,Concrete,154,,1,10,1309,124,10,7,10,https://tools.wprdc.org/images/pittsburgh/steps/Halpin_St_from_Maple_Terrace_to_Belonda_St.jpg,Mount Washington,2,19,42003191400,5,19,3,4-27,40.42954779,-80.01093069
1241623671,Halpin St from Natchez St to Maple Terrace,5th Division,1952-01-01,Concrete,75,,1,10,1298,124,10,9,10,https://tools.wprdc.org/images/pittsburgh/steps/Halpin_St_from_Natchez_St_to_Maple_Terrace.jpg,Mount Washington,2,19,42003191400,5,19,3,4-27,40.42921091,-80.01064906
1911036097,Halpin Way from Leipsic Way to Natchez St,5th Division,1952-01-01,Concrete,75,13,,,,,,,,https://tools.wprdc.org/images/pittsburgh/steps/Halpin_Way_from_Leipsic_Way_to_Natchez_St.jpg,Mount Washington,2,19,42003191400,5,19,3,4-27,40.42858014,-80.01045914
307908069,Halsey Place from Colorado St to Mannheim St,1st Division,1984-01-01,Concrete,264,43,1,2,318,56,3,4,3,https://tools.wprdc.org/images/pittsburgh/steps/Halsey_Place_from_Colorado_St_to_Mannheim_St.jpg,Marshall-Shadeland,1,27,42003270400,1,27,1,1-9,40.46409354,-80.03089553
1978570066,Hamlet St from Lawn St to Ophelia St,3rd Division,,Concrete,231,15,,,,,,,,https://tools.wprdc.org/images/pittsburgh/steps/Hamlet_St_from_Lawn_St_to_Ophelia_St.jpg,South Oakland,6,4,42003040900,3,4,4,2-10,40.43475761,-79.96346247
848212798,Hampshire Ave from Canton Ave to Napoleon St,5th Division,,Concrete,214,58,0,100,551,321,7,8,7,https://tools.wprdc.org/images/pittsburgh/steps/Hampshire_Ave_from_Canton_Ave_to_Napoleon_St.jpg,Beechview,4,19,42003191600,5,19,6,4-28,40.41045242,-80.02966804
1542056997,Hampshire Ave from Graymore St to Canton Ave,5th Division,1951-01-01,Concrete,345,112,0,100,454,7,2,2,2,https://tools.wprdc.org/images/pittsburgh/steps/Hampshire_Ave_from_Graymore_St_to_Canton_Ave.jpg,Beechview,4,19,42003191600,5,19,6,4-28,40.41040228,-80.03052632
806931698,Hampton St at King Ave from Heths Ave,2nd Division,1976-01-01,Concrete,197,23,,,,,,,,https://tools.wprdc.org/images/pittsburgh/steps/Hampton_St_at_King_Ave_from_Heths_Ave.jpg,Highland Park,7,11,42003110200,2,11,5,3-9,40.47653759,-79.92772891
319116090,Hancock St from Ajax St to Monroe St,3rd Division,,Concrete,209,52,,,,,,,,https://tools.wprdc.org/images/pittsburgh/steps/Hancock_St_from_Ajax_St_to_Monroe_St.jpg,Upper Hill,6,5,42003050600,3,5,2,2-24,40.45539985,-79.96370846
2097548340,Hancock St from Herron Ave to Bigelow Blvd,3rd Division,1952-01-01,Concrete,162,50,1,7,986,166,9,3,9,https://tools.wprdc.org/images/pittsburgh/steps/Hancock_St_from_Herron_Ave_to_Bigelow_Blvd.jpg,Polish Hill,7,6,42003060500,6,6,2,2-6,40.45653737,-79.96478009
1519134587,Hancock St from Ridgway St to Ajax St,3rd Division,,Concrete,96,14,,,,,,,,https://tools.wprdc.org/images/pittsburgh/steps/Hancock_St_from_Ridgway_St_to_Ajax_St.jpg,Upper Hill,6,5,42003060500,3,5,2,2-24,40.45581875,-79.96409001
902753501,Harding St from Dobson St to Fleetwood Way,3rd Division,,Concrete,271,53,,,,,,,,https://tools.wprdc.org/images/pittsburgh/steps/Harding_St_from_Dobson_St_to_Fleetwood_Way.jpg,Polish Hill,7,6,42003060500,6,6,2,2-6,40.45783829,-79.96475136
1162188625,Harding St from Fleetwood Way to Herron Ave,3rd Division,,Concrete,130,53,0,100,959,161,8,3,8,https://tools.wprdc.org/images/pittsburgh/steps/Harding_St_from_Fleetwood_Way_to_Herron_Ave.jpg,Polish Hill,7,6,42003060500,6,6,2,2-6,40.45750329,-79.96449531
2037536636,Harding St from Herron Ave to Dobson St,3rd Division,1944-01-01,Concrete,143,80,0,100,882,212,9,4,8,https://tools.wprdc.org/images/pittsburgh/steps/Harding_St_from_Herron_Ave_to_Dobson_St.jpg,Polish Hill,7,6,42003060500,6,6,2,2-6,40.45819201,-79.96516682
903695425,Harding Way from Bigelow Blvd to Ridgway St,3rd Division,1944-01-01,Concrete,106,71,0,100,299,24,4,9,5,https://tools.wprdc.org/images/pittsburgh/steps/Harding_Way_from_Bigelow_Blvd_to_Ridgway_St.jpg,Polish Hill,7,6,42003060500,3,6,2,2-24,40.45644675,-79.96337697
1726251189,Harding Way to Bigelow Blvd,3rd Division,1949-01-01,Concrete,31,27,0,100,758,163,10,9,10,https://tools.wprdc.org/images/pittsburgh/steps/Harding_Way_to_Bigelow_Blvd.jpg,Polish Hill,7,6,42003060500,6,6,2,2-6,40.45677771,-79.96362553
545104181,Harpster St from Lager St to Claim St,1st Division,1949-01-01,Concrete,164,45,2,2,629,105,5,2,5,https://tools.wprdc.org/images/pittsburgh/steps/Harpster_St_from_Lager_St_to_Claim_St.jpg,Troy Hill,1,24,42003240600,1,24,1,1-24,40.46385521,-79.9847246
643907932,Harry St from Bernhardt Way to Lisbon St,3rd Division,,Wood,94,41,0,100,214,3,1,1,2,https://tools.wprdc.org/images/pittsburgh/steps/Harry_St_from_Bernhardt_Way_to_Lisbon_St.jpg,Upper Hill,6,5,42003050600,3,5,2,2-24,40.45706991,-79.95708483
869309728,Hartford St from Fritz St to Hartford St,4th Division,,Wood,275,77,0,100,280,2,2,3,4,https://tools.wprdc.org/images/pittsburgh/steps/Hartford_St_from_Fritz_St_to_Hartford_St.jpg,South Side Slopes,3,17,42003170600,3,17,3,4-2,40.42500592,-79.98788352
1677264967,Hartford St to Dead End,4th Division,,Wood,76,41,0,100,168,2,1,1,2,https://tools.wprdc.org/images/pittsburgh/steps/Hartford_St_to_Dead_End.jpg,Allentown,3,18,42003170600,5,18,3,4-5,40.42491872,-79.98825568
126140055,Harwood Way from Busway to Secane Ave,DOMI - Signs and Markings,1949-01-01,Concrete,204,21,0,100,945,1643,10,7,10,https://tools.wprdc.org/images/pittsburgh/steps/Harwood_Way_from_Busway_to_Secane_Ave.jpg,Mount Washington,3,18,42003191500,5,18,3,4-5,40.42191053,-80.00380284
2039944559,Hatford St to Windom St,4th Division,,Wood,58,20,0,100,157,2,3,8,6,https://tools.wprdc.org/images/pittsburgh/steps/Hatford_St_to_Windom_St.jpg,South Side Slopes,3,17,42003170600,3,17,3,4-5,40.42495357,-79.98848857
150117324,Haverhill St at Oakwood St,2nd Division,1949-01-01,Concrete,125,31,0,100,731,125,6,1,4,https://tools.wprdc.org/images/pittsburgh/steps/Haverhill_St_at_Oakwood_St.jpg,East Hills,9,13,42003130600,2,13,5,3-17,40.4522632,-79.88477866
612863773,Hawkins St from Ellis St to Perrysville Ave,1st Division,,Wood,195,49,1,7,802,276,9,5,8,https://tools.wprdc.org/images/pittsburgh/steps/Hawkins_St_from_Ellis_St_to_Perrysville_Ave.jpg,Perry South,6,26,42003261500,1,26,1,1-23,40.47256597,-80.01078683
393239418,Hawkins St from Marshall Ave to Matson St,1st Division,,Wood,158,80,,,,,,,,https://tools.wprdc.org/images/pittsburgh/steps/Hawkins_St_from_Marshall_Ave_to_Matson_St.jpg,Perry South,6,26,42003261500,1,26,1,1-12,40.47240453,-80.01606836
1109326293,Hawkins St from Perrysville Ave to Veteran St,1st Division,1950-01-01,Concrete,150,72,1,3,745,237,7,2,6,https://tools.wprdc.org/images/pittsburgh/steps/Hawkins_St_from_Perrysville_Ave_to_Veteran_St.jpg,Perry South,6,26,42003261500,1,26,1,1-23,40.47259179,-80.00985576
425403223,Hawkins St from Shelton St to Ellis St,1st Division,,Wood,178,55,1,6,823,275,9,3,8,https://tools.wprdc.org/images/pittsburgh/steps/Hawkins_St_from_Shelton_St_to_Ellis_St.jpg,Perry South,6,26,42003261500,1,26,1,1-23,40.47253579,-80.01154616
37411413,Hawrdige Way from Denise St to Nobles Lane,4th Division,,Concrete,156,22,0,100,199,188,3,7,2,https://tools.wprdc.org/images/pittsburgh/steps/Hawrdige_Way_from_Denise_St_to_Nobles_Lane.jpg,Carrick,4,29,42003290100,3,29,3,4-23,40.39914542,-79.99825081
47837538,Heberton St at Farmhouse Rd to Bunker Hill St,2nd Division,,Concrete,260,21,0,100,387,19,4,7,2,https://tools.wprdc.org/images/pittsburgh/steps/Heberton_St_at_Farmhouse_Rd_to_Bunker_Hill_St.jpg,Highland Park,7,11,42003110600,2,11,5,3-9,40.47778052,-79.91422059
790961910,Heckelman St and Eggers St from E Ohio St,1st Division,,Concrete,176,,0,100,618,80,4,1,1,https://tools.wprdc.org/images/pittsburgh/steps/Heckelman_St_and_Eggers_St_from_E_Ohio_St.jpg,Troy Hill,1,24,42003240600,1,24,1,1-2,40.46810026,-79.97761317
36516302,Hemlock St from James St to Compromise St,1st Division,1948-01-01,Concrete,338,143,1,4,815,347,8,2,9,https://tools.wprdc.org/images/pittsburgh/steps/Hemlock_St_from_James_St_to_Compromise_St.jpg,East Allegheny,1,25,42003563200,1,25,1,1-10,40.45830663,-80.00150533
313910388,Henderson St from Fountain St,1st Division,,Concrete,41,11,,,,,,,,https://tools.wprdc.org/images/pittsburgh/steps/Henderson_St_from_Fountain_St.jpg,Fineview,6,25,42003250900,1,25,1,1-10,40.45906721,-80.00661622
1413485975,Herman St and Adair St from Herman St,1st Division,,Concrete,168,17,1,4,663,54,5,4,9,https://tools.wprdc.org/images/pittsburgh/steps/Herman_St_and_Adair_St_from_Herman_St.jpg,Troy Hill,1,24,42003240600,1,24,1,1-2,40.46013638,-79.98737858
978542470,Herron Ave at Bedford Ave,3rd Division,,Concrete,47,13,,,,,,,,https://tools.wprdc.org/images/pittsburgh/steps/Herron_Ave_at_Bedford_Ave.jpg,Bedford Dwellings,6,5,42003050900,3,5,2,2-5,40.45296706,-79.96520675
832196448,Herron Ave at Bigelow Blvd,3rd Division,,Concrete,38,38,1,4,930,81,6,1,9,https://tools.wprdc.org/images/pittsburgh/steps/Herron_Ave_at_Bigelow_Blvd.jpg,Polish Hill,7,6,42003060500,6,6,2,2-24,40.45580832,-79.96581752
326961571,Herron Ave at Wylie Ave,3rd Division,1934-01-01,Concrete,25,12,,,,,,,,https://tools.wprdc.org/images/pittsburgh/steps/Herron_Ave_at_Wylie_Ave.jpg,Middle Hill,6,5,42003050100,3,5,2,2-5,40.45076047,-79.96520786
1507374981,High St at Itin St,1st Division,,Stone,12,4,0,100,647,43,3,1,4,https://tools.wprdc.org/images/pittsburgh/steps/High_St_at_Itin_St.jpg,Spring Garden,1,24,42003241200,1,24,1,1-5,40.45966223,-79.99464902
975348020,Highnote Way from Alries St to E Meyers St,4th Division,,Concrete,225,,2,7,1184,152,8,2,8,https://tools.wprdc.org/images/pittsburgh/steps/Highnote_Way_from_Alries_St_to_E_Meyers_St.jpg,Carrick,4,29,42003290200,3,29,3,4-12,40.40002094,-79.9858224
790257961,Highnote Way from Anglo Way to Birmingham Ave,4th Division,1972-01-01,Concrete,158,,1,9,1109,68,9,6,8,https://tools.wprdc.org/images/pittsburgh/steps/Highnote_Way_from_Anglo_Way_to_Birmingham_Ave.jpg,Carrick,4,29,42003290200,3,29,3,4-12,40.40266991,-79.98640825
1698171564,Highnote Way from Birmingham Ave to The Boulevard,4th Division,1972-01-01,Concrete,354,,1,9,1252,156,10,5,9,https://tools.wprdc.org/images/pittsburgh/steps/Highnote_Way_from_Birmingham_Ave_to_The_Boulevard.jpg,Carrick,4,29,42003290200,3,29,3,4-12,40.40185698,-79.9863117
1166574378,Highnote Way from E Meyers St to Romance Way,4th Division,,Concrete,134,,1,9,1154,109,10,6,10,https://tools.wprdc.org/images/pittsburgh/steps/Highnote_Way_from_E_Meyers_St_to_Romance_Way.jpg,Carrick,4,29,42003290200,3,29,3,4-12,40.40063586,-79.98601466
794340414,Hilltop St from Gladstone St to Parnell St,3rd Division,,Asphalt/Wood,173,27,0,100,326,10,5,10,5,https://tools.wprdc.org/images/pittsburgh/steps/Hilltop_St_from_Gladstone_St_to_Parnell_St.jpg,Hazelwood,5,15,42003562900,3,15,4,2-13,40.41559469,-79.94196233
721121348,Hilltop St from Winterburn Ave to Georgekay Rd,3rd Division,1949-01-01,Concrete,205,84,0,100,409,14,2,4,3,https://tools.wprdc.org/images/pittsburgh/steps/Hilltop_St_from_Winterburn_Ave_to_Georgekay_Rd.jpg,Hazelwood,5,15,42003562900,3,15,4,2-12,40.41595238,-79.94015605
942282232,Hillview St and E Saw Mill Run to Kingwood St,4th Division,1950-01-01,Concrete,330,95,0,100,440,93,4,3,4,https://tools.wprdc.org/images/pittsburgh/steps/Hillview_St_and_E_Saw_Mill_Run_to_Kingwood_St.jpg,Overbrook,4,32,42003320700,5,32,3,4-25,40.3814226,-79.99636005
1983104539,Hillview St from Kingwood St to Homehurst St,4th Division,1949-01-01,Concrete,344,111,0,100,221,93,4,3,2,https://tools.wprdc.org/images/pittsburgh/steps/Hillview_St_from_Kingwood_St_to_Homehurst_St.jpg,Overbrook,4,32,42003320700,5,32,3,4-25,40.38021834,-79.9978161
643040351,Hobson St from Breining St,4th Division,,Concrete,22,18,1,9,691,98,10,10,7,https://tools.wprdc.org/images/pittsburgh/steps/Hobson_St_from_Breining_St.jpg,Brookline,4,19,42003191800,5,19,6,4-26,40.39003018,-80.00856791
175542721,Hodge St to Dead End,3rd Division,1945-01-01,Concrete,158,26,0,100,443,60,2,1,4,https://tools.wprdc.org/images/pittsburgh/steps/Hodge_St_to_Dead_End.jpg,South Oakland,3,4,42003040900,3,4,4,2-11,40.43262816,-79.95932866
213539979,Hodge St to Mackey St,3rd Division,,Asphalt/Wood,108,18,,,,,,,,https://tools.wprdc.org/images/pittsburgh/steps/Hodge_St_to_Mackey_St.jpg,South Oakland,3,4,42003040900,3,4,4,2-11,40.43376972,-79.95889391
952208964,Hollace St to Orbin St,3rd Division,,Concrete,33,33,1,9,638,91,9,10,10,https://tools.wprdc.org/images/pittsburgh/steps/Hollace_St_to_Orbin_St.jpg,Middle Hill,6,5,42003050100,3,5,2,2-5,40.45069775,-79.96772143
840781604,Holt St from Sterling St,4th Division,,Wood,180,47,0,100,783,0,4,4,6,https://tools.wprdc.org/images/pittsburgh/steps/Holt_St_from_Sterling_St.jpg,South Side Slopes,3,16,42003160800,3,16,3,4-22,40.42224825,-79.97368464
2138829449,Hoosac St from Alger St to Neeb St East,3rd Division,,Concrete,310,51,,,,,,,,https://tools.wprdc.org/images/pittsburgh/steps/Hoosac_St_from_Alger_St_to_Neeb_St_East.jpg,Greenfield,5,15,42003151600,3,15,4,2-12,40.42712673,-79.94127941
1476634806,Hoosac St from Alger St to Neeb St West,3rd Division,,Concrete,311,45,,,,,,,,https://tools.wprdc.org/images/pittsburgh/steps/Hoosac_St_from_Alger_St_to_Neeb_St_West.jpg,Greenfield,5,15,42003151600,3,15,4,2-12,40.42710082,-79.94139708
740572644,Hoosac St from Neeb St West,3rd Division,,Concrete,18,7,,,,,,,,https://tools.wprdc.org/images/pittsburgh/steps/Hoosac_St_from_Neeb_St_West.jpg,Greenfield,5,15,42003151600,3,15,4,2-12,40.42759307,-79.94160641
320381593,Horning St from Ivyglen St to Lodge St,4th Division,,Concrete,316,46,0,100,593,93,5,3,5,https://tools.wprdc.org/images/pittsburgh/steps/Horning_St_from_Ivyglen_St_to_Lodge_St.jpg,Overbrook,4,32,42003320400,5,32,3,4-23,40.38204023,-79.99416756
1307398990,Hunnell St from Leister St to Hunnell St,1st Division,,Wood,216,50,,,,,,,,https://tools.wprdc.org/images/pittsburgh/steps/Hunnell_St_from_Leister_St_to_Hunnell_St.jpg,Spring Hill-City View,1,24,42003262000,1,24,1,1-24,40.46375319,-79.9934093
1878353216,Hunnell St from Yetta Ave to Leister St,1st Division,,Wood,151,66,0,100,630,67,5,4,4,https://tools.wprdc.org/images/pittsburgh/steps/Hunnell_St_from_Yetta_Ave_to_Leister_St.jpg,Spring Hill-City View,1,24,42003262000,1,24,1,1-24,40.46326493,-79.99319442
1682996008,Huxley St from Chartiers Ave to Adon St,5th Division,1949-01-01,Concrete,108,56,1,4,963,79,6,1,7,https://tools.wprdc.org/images/pittsburgh/steps/Huxley_St_from_Chartiers_Ave_to_Adon_St.jpg,Sheraden,2,20,42003202200,5,20,6,1-16,40.45326922,-80.06182636
1746714997,Huxley St from Emporia St to Tybee St,5th Division,,Brick/Asphalt,262,12,,,,,,,,https://tools.wprdc.org/images/pittsburgh/steps/Huxley_St_from_Emporia_St_to_Tybee_St.jpg,Sheraden,2,20,42003202200,5,20,6,1-16,40.45263057,-80.06109433
1637790311,Hyena St from Marvista St to Success St,1st Division,1945-01-01,Concrete,245,166,0,100,364,61,6,9,9,https://tools.wprdc.org/images/pittsburgh/steps/Hyena_St_from_Marvista_St_to_Success_St.jpg,California-Kirkbride,6,21,42003250700,1,21,1,1-9,40.4620743,-80.02647308
1880426901,Inglenook Pl from Singer Pl to Sickles St,2nd Division,1944-01-01,Concrete,227,,0,100,671,65,5,3,5,https://tools.wprdc.org/images/pittsburgh/steps/Inglenook_Pl_from_Singer_Pl_to_Sickles_St.jpg,East Hills,9,13,42003130600,2,13,5,3-17,40.45131505,-79.8829857
700477853,Inglenook Place from Oakwood St to Singer Pl,2nd Division,1944-01-01,Concrete,280,,0,100,821,96,7,3,6,https://tools.wprdc.org/images/pittsburgh/steps/Inglenook_Place_from_Oakwood_St_to_Singer_Pl.jpg,East Hills,9,13,42003130600,2,13,5,3-17,40.45112421,-79.88401299
1883065683,Inglis St from Smithton Ave,1st Division,,Concrete,83,28,,,,,,,,https://tools.wprdc.org/images/pittsburgh/steps/Inglis_St_from_Smithton_Ave.jpg,Marshall-Shadeland,1,27,42003271500,1,27,1,1-14,40.47440483,-80.02818107
1859229416,Interboro Ave at Oakleaf Dr,3rd Division,,Concrete,28,18,1,1,476,79,3,1,1,https://tools.wprdc.org/images/pittsburgh/steps/Interboro_Ave_at_Oakleaf_Dr.jpg,Lincoln Place,5,31,42003310200,3,31,4,4-20,40.37067223,-79.9128794
248159793,Iowa St from Centre Ave to Avalon St,3rd Division,,Concrete,62,50,4,7,747,315,10,6,9,https://tools.wprdc.org/images/pittsburgh/steps/Iowa_St_from_Centre_Ave_to_Avalon_St.jpg,Terrace Village,6,5,42003051000,3,5,2,2-22,40.44815861,-79.95921281
1477924688,Iowa St from Centre Ave to Ewart Dr,3rd Division,,Concrete,60,52,4,10,751,315,10,10,10,https://tools.wprdc.org/images/pittsburgh/steps/Iowa_St_from_Centre_Ave_to_Ewart_Dr.jpg,Upper Hill,6,5,42003050600,3,5,2,2-22,40.44849876,-79.95892846
471909075,Ireland Way 1,1st Division,,Concrete,99,35,1,1,285,41,2,1,2,https://tools.wprdc.org/images/pittsburgh/steps/Ireland_Way_1.jpg,Marshall-Shadeland,1,27,42003271500,1,27,1,1-14,40.46682447,-80.03352592
1298046127,Ireland Way 2,1st Division,,Concrete,62,10,1,1,272,36,2,1,2,https://tools.wprdc.org/images/pittsburgh/steps/Ireland_Way_2.jpg,Marshall-Shadeland,1,27,42003271500,1,27,1,1-14,40.46672548,-80.03338293
959161300,Irwin Ave from Melrose Ave to Chautauqua Court,1st Division,1946-01-01,Concrete,232,177,0,100,516,51,6,9,8,https://tools.wprdc.org/images/pittsburgh/steps/Irwin_Ave_from_Melrose_Ave_to_Chautauqua_Court.jpg,Perry South,6,25,42003261400,1,25,1,1-12,40.46344593,-80.01764553
857643485,Irwin Ave from Strauss to Chester Ave,1st Division,1946-01-01,Concrete,409,229,0,100,508,31,5,8,4,https://tools.wprdc.org/images/pittsburgh/steps/Irwin_Ave_from_Strauss_to_Chester_Ave.jpg,Perry South,6,26,42003261400,1,26,1,1-12,40.46579861,-80.01842587
689884874,Itin St and Concord St,1st Division,,Concrete,40,11,,,,,,,,https://tools.wprdc.org/images/pittsburgh/steps/Itin_St_and_Concord_St.jpg,Spring Garden,1,23,42003241200,1,23,1,1-5,40.4582261,-79.9953797
70465437,Ivondale St from Ivondale St to Anthony St,3rd Division,1950-01-01,Concrete,34,33,1,6,200,0,4,10,2,https://tools.wprdc.org/images/pittsburgh/steps/Ivondale_St_from_Ivondale_St_to_Anthony_St.jpg,Greenfield,5,15,42003151600,3,15,4,2-12,40.42749347,-79.94494307
755379182,Jacob St from Brookline Blvd to Sunbeam Way,4th Division,1988-01-01,Concrete,781,364,0,100,401,22,5,10,3,https://tools.wprdc.org/images/pittsburgh/steps/Jacob_St_from_Brookline_Blvd_to_Sunbeam_Way.jpg,Overbrook,4,32,42003320600,5,32,3,4-25,40.38997128,-79.99937462
1049420272,James St to Fountain St,Facilities,1948-01-01,Concrete,97,62,1,6,705,233,9,5,10,https://tools.wprdc.org/images/pittsburgh/steps/James_St_to_Fountain_St.jpg,Central Northside,6,25,42003220600,1,25,1,1-10,40.45854064,-80.00229308
705662424,Jancey St from Butler St to Baker St,2nd Division,,Concrete,241,137,1,8,783,110,9,7,8,https://tools.wprdc.org/images/pittsburgh/steps/Jancey_St_from_Butler_St_to_Baker_St.jpg,Morningside,7,10,42003101400,2,10,5,3-7,40.48845241,-79.92440321
